,상호명,도로명주소,위도,경도
0,카리브,서울특별시 종로구 종로11길 13,37.57091452,126.9855502
1,식감이야기양재역점,서울특별시 서초구 남부순환로350길 19-26,37.4841581,127.0368039
2,대치노래바하트,서울특별시 강남구 삼성로 231,37.49781443,127.060966
3,맥주창고오라고노량진점,서울특별시 동작구 노량진로 158,37.51341981,126.943526
4,압구정4층,서울특별시 강남구 선릉로157길 33,37.52628427,127.0370318
5,할라,서울특별시 서초구 서초대로77길 43,37.50137865,127.0248884
6,한잔해,서울특별시 강동구 올림픽로71길 30,37.5403278,127.1220811
7,제이앤제이슨R,서울특별시 마포구 동교로 255-1,37.56279652,126.924515
8,드렁크829,서울특별시 서초구 효령로55길 15,37.48544925,127.0141838
9,멕시칸호프,서울특별시 구로구 우마1길 5,37.48246171,126.8877785
10,조니워커블랙라벨,서울특별시 양천구 신정중앙로 85,37.52684775,126.8613703
11,흥미식당,서울특별시 용산구 이태원로19길 6,37.53472959,126.9919808
12,슈가레이펍,서울특별시 마포구 와우산로 75,37.55124087,126.9230514
13,별이빛나는밤에,서울특별시 강동구 천호대로176길 10,37.53401571,127.1361063
14,내사랑호프,서울특별시 도봉구 덕릉로59다길 14-6,37.64032613,127.0377485
15,샤방샤방,서울특별시 서대문구 연세로 3,37.55604066,126.9366658
16,스테이,서울특별시 송파구 오금로 148,37.5104748,127.1111084
17,술무로,서울특별시 성북구 정릉로10길 31,37.60757374,126.9998553
18,달달호프,서울특별시 용산구 한강대로62길 27,37.53366247,126.9737447
19,실내포차그미네,서울특별시 강서구 공항대로59길 27,37.55282755,126.8635442
20,케이피씨,서울특별시 마포구 어울마당로 55-8,37.550308,126.9205525
21,달빛아래한잔,서울특별시 강북구 인수봉로56길 14,37.63656777,127.0136183
22,선화가맥,서울특별시 성북구 보문로30라길 16,37.58988278,127.0187526
23,달곡동라이브7080,서울특별시 성북구 화랑로 104,37.60333871,127.0433102
24,제주밤바다,서울특별시 노원구 노해로81길 12-21,37.65576889,127.0633776
25,잉쓰,서울특별시 영등포구 여의나루로 117,37.52621941,126.9310365
26,필,서울특별시 서초구 서초중앙로 109,37.49159095,127.0137639
27,홍대포차,서울특별시 관악구 난곡로 89-1,37.46330456,126.9187525
28,와인쉬어리,서울특별시 강남구 논현로36길 23,37.48511545,127.0437343
29,콘크리트포이트리,서울특별시 중구 창경궁로5길 18,37.56717362,126.9969659
30,홍구포차,서울특별시 강북구 한천로 1063-1,37.64146863,127.0243632
31,천국포차,서울특별시 은평구 증산로9길 10,37.58523847,126.9094732
32,오케이포차,서울특별시 마포구 잔다리로6길 35,37.55244856,126.9211101
33,왕노가리,서울특별시 도봉구 도봉산3길 92,37.68330575,127.0433384
34,미스미스노래짱,서울특별시 마포구 대흥로 82,37.54730896,126.9416107
35,벙커,서울특별시 강서구 마곡중앙6로 89,37.56015848,126.8372758
36,당산옛날곱창,서울특별시 영등포구 당산로47길 14,37.53536227,126.9022569
37,우주맥주,서울특별시 금천구 디지털로9길 46,37.48004933,126.8870793
38,올래포차,서울특별시 관악구 중앙1나길 3,37.48344931,126.9534687
39,코트룸,서울특별시 서초구 반포대로28길 56-3,37.49129332,127.011574
40,무명요리사,서울특별시 마포구 동교로32길 3,37.56083241,126.9245319
41,다모아호프,서울특별시 광진구 뚝섬로 476,37.5364691,127.0631632
42,작은주방,서울특별시 금천구 시흥대로63길 3,37.45478164,126.8993442
43,이유유,서울특별시 중구 퇴계로88길 47,37.56341417,127.0203224
44,청춘스쿨,서울특별시 강북구 덕릉로8길 6,37.63368873,127.0152085
45,봉천예술관,서울특별시 관악구 관악로14길 22,37.47900066,126.9537569
46,플라워뮤직,서울특별시 관악구 남부순환로 1594-6,37.483581,126.9279582
47,이런역같은,서울특별시 중구 칠패로 14,37.55933057,126.9703367
48,치삼쭈,서울특별시 송파구 오금로59길 5,37.49394814,127.1438848
49,써니7080,서울특별시 성북구 동소문로20길 29-15,37.59153945,127.0175193
50,붐바,서울특별시 용산구 이태원로 211,37.53498179,126.9972614
51,댕포차,서울특별시 금천구 시흥대로52길 42,37.45321265,126.902125
52,건배,서울특별시 성동구 성덕정길 141,37.53657159,127.0590545
53,수도원,서울특별시 종로구 동숭3길 16,37.58171927,127.0047527
54,민들레호프,서울특별시 영등포구 시흥대로175길 17,37.48850987,126.9034291
55,경성,서울특별시 종로구 자하문로1길 13-1,37.57640706,126.9715734
56,빠져들다,서울특별시 동작구 상도로15길 131,37.50495408,126.9379563
57,신흥부전,서울특별시 마포구 매봉산로2길 25,37.57812357,126.8952895
58,신디스하우스,서울특별시 강남구 도산대로49길 11,37.52361752,127.0370774
59,문러너,서울특별시 송파구 백제고분로7길 24-11,37.51015162,127.0818163
60,어라이브,서울특별시 송파구 올림픽로10길 20,37.50989398,127.0811294
61,점블,서울특별시 마포구 와우산로17길 24,37.5502909,126.9216391
62,신사동,서울특별시 광진구 답십리로 372,37.57142315,127.0818117
63,솔샘,서울특별시 도봉구 덕릉로60길 36,37.63858941,127.040241
64,준코,서울특별시 강남구 도산대로 123,37.51744653,127.0218739
65,생활맥주,서울특별시 종로구 새문안로5길 11-7,37.57114331,126.9744871
66,이애이치엔,서울특별시 용산구 녹사평대로 168-6,37.53324734,126.9893418
67,나팔바지,서울특별시 성북구 보문로32길 12,37.58930266,127.0172543
68,로마7080라이브,서울특별시 금천구 범안로 1256,37.46629936,126.9015267
69,르템플,서울특별시 중구 충무로7길 2,37.56589129,126.9923987
70,셔터,서울특별시 송파구 백제고분로45길 22-1,37.51010859,127.1091446
71,솜사탕,서울특별시 마포구 백범로2길 6,37.55429175,126.9365661
72,달빛소굴,서울특별시 마포구 동교로 125,37.55512249,126.9159559
73,리턴,서울특별시 강남구 테헤란로51길 7,37.50458422,127.0466981
74,골목포차,서울특별시 양천구 월정로 109,37.52896179,126.8388124
75,일번지호프,서울특별시 강서구 금낭화로 15,37.56678646,126.8115794
76,술좋은날,서울특별시 강동구 양재대로111길 15,37.53698002,127.1385501
77,에브르,서울특별시 마포구 동교로46길 42-9,37.561753,126.9266806
78,을지로골뱅이,서울특별시 송파구 중대로 24,37.48811901,127.1110454
79,팝콘,서울특별시 강북구 도봉로 345,37.63866087,127.0258729
80,네뜨,서울특별시 중구 퇴계로 364,37.5646314,127.0117717
81,블랙박스,서울특별시 강남구 도산대로30길 16-4,37.51876853,127.0292097
82,오케이,서울특별시 동대문구 한천로18길 6,37.56902425,127.0643291
83,마피아,서울특별시 강남구 도산대로37길 13,37.52192011,127.0311486
84,청춘감성포차,서울특별시 용산구 서빙고로 4-6,37.52585759,126.965276
85,라쿤컴퍼니역전할머니맥주,서울특별시 관악구 승방4길 20,37.47459675,126.9808162
86,몰트앤컴퍼니,서울특별시 용산구 한강대로38가길 7-18,37.52980078,126.9700413
87,준코,서울특별시 서대문구 연세로4길 7,37.55707414,126.9373641
88,반듯한습관,서울특별시 서초구 강남대로 597,37.51502842,127.0193037
89,먹거리포차,서울특별시 은평구 통일로87길 6-16,37.6240252,126.9189776
90,아지트,서울특별시 강서구 방화동로 1,37.56212819,126.8080088
91,얼레벌레,서울특별시 금천구 독산로11길 7,37.45194623,126.9054777
92,닉스노래방식주점,서울특별시 종로구 새문안로5가길 3-1,37.57247482,126.9742538
93,줌커피호프,서울특별시 중랑구 용마산로115길 86,37.59823612,127.095536
94,지하102호,서울특별시 마포구 독막로3길 39,37.55002653,126.9173651
95,허브노래바큐,서울특별시 강남구 언주로107길 22,37.50762615,127.037362
96,콜라보,서울특별시 중구 동호로12길 6,37.55556648,127.0106464
97,발리,서울특별시 서초구 강남대로101안길 13,37.51632381,127.0179633
98,김빠빠누룽지통닭,서울특별시 동작구 양녕로 286-1,37.50458188,126.9507534
99,엘세뇨르둘세,서울특별시 강남구 도산대로101길 22,37.52627792,127.0529614
100,로제드미네,서울특별시 마포구 성미산로 190-11,37.56250442,126.9260812
101,아임프릇티,서울특별시 동작구 등용로 107,37.51069303,126.9318801
102,맨하탄노래클럽,서울특별시 영등포구 양평로 77,37.53546033,126.8982727
103,도조,서울특별시 용산구 우사단로14길 18,37.53412981,126.9966732
104,함지박,서울특별시 관악구 신림로65길 38,37.48493597,126.9273396
105,충남집,서울특별시 성북구 정릉로 452,37.60332318,127.0314642
106,역전할머니맥주상일점,서울특별시 강동구 상일로 27,37.54947944,127.1728217
107,임창정의소주한잔,서울특별시 광진구 아차산로33길 21,37.54130009,127.0701751
108,너그리고나,서울특별시 금천구 독산로 22,37.44924249,126.9054153
109,곰돌이맥주,서울특별시 도봉구 도봉로149길 15,37.66614788,127.0419492
110,콘서트,서울특별시 강동구 올림픽로 677,37.54198446,127.1243362
111,위커파크,서울특별시 송파구 석촌호수로 298,37.51154282,127.1081547
112,우장군,서울특별시 강서구 강서로5나길 117,37.52813337,126.8416197
113,디오엠,서울특별시 종로구 성균관로 4-8,37.58361456,126.9987267
114,아지트,서울특별시 관악구 남부순환로230길 22,37.47910476,126.9553383
115,퍼프타운,서울특별시 강남구 언주로170길 28,37.52658991,127.0358399
116,뉴신세계,서울특별시 관악구 남부순환로 1631-1,37.4848159,126.9319886
117,스타에델치킨가산,서울특별시 금천구 벚꽃로38길 15,37.4821466,126.8839841
118,금강산,서울특별시 도봉구 노해로63길 79,37.65308194,127.0462762
119,신오빠닭발,서울특별시 관악구 관천로 54,37.48440604,126.926533
120,신짱구비어,서울특별시 강북구 수유로 17,37.63257173,127.0184862
121,꾸찌꾸찌,서울특별시 중구 청파로 464,37.56080774,126.9682111
122,크레프트헌터,서울특별시 용산구 새창로 131,37.53598758,126.9614248
123,꾸's디저트,서울특별시 강동구 아리수로74길 35-23,37.56102761,127.1621222
124,씨비케이,서울특별시 서대문구 연희로11길 7,37.56697702,126.9304317
125,밤바다,서울특별시 은평구 연서로29길 22-9,37.61979607,126.9176342
126,타임,서울특별시 강서구 화곡로 175,37.54208496,126.8410644
127,7080놀이터,서울특별시 관악구 남부순환로 2082-29,37.4761362,126.9806597
128,카네기7080,서울특별시 강서구 까치산로27길 23,37.55196989,126.8512667
129,펀비어킹독산3동점,서울특별시 금천구 독산로 359,37.47890684,126.9036599
130,오닉스,서울특별시 강남구 강남대로62길 13,37.49060239,127.0326049
131,스타호프,서울특별시 영등포구 당산로 136-1,37.52676345,126.8971108
132,클라우드,서울특별시 영등포구 여의대방로 375,37.51889138,126.9307564
133,광나루,서울특별시 마포구 월드컵북로 187,37.56802979,126.9076413
134,로젤,서울특별시 종로구 창경궁로26길 33,37.58181854,126.9994414
135,호랭이술집,서울특별시 성북구 고려대로26길 14,37.58552309,127.0298154
136,끝판왕그룹,서울특별시 성동구 연무장13길 9,37.54257477,127.0581983
137,미미호호,서울특별시 중구 다산로42나길 46,37.56231637,127.0172467
138,쇼노래클럽,서울특별시 강서구 화곡로58길 36,37.55262493,126.852841
139,에이원,서울특별시 강남구 테헤란로20길 10,37.49907574,127.0341242
140,주별장,서울특별시 은평구 연서로29길 8-3,37.61904628,126.9193895
141,소소호프,서울특별시 강남구 남부순환로370길 9,37.48494312,127.0424814
142,청마루포차,서울특별시 동대문구 천호대로77길 123,37.56691646,127.064412
143,역전할머니맥주,서울특별시 성북구 월계로 172,37.61926372,127.0448733
144,워커비,서울특별시 강남구 도산대로49길 6-10,37.52357948,127.0379377
145,지금이밤,서울특별시 광진구 능동로 27,37.53387249,127.0675179
146,요리하는남자,서울특별시 관악구 장군봉1길 9,37.48213701,126.9406877
147,찐이야,서울특별시 강동구 명일로 191,37.53583964,127.1452957
148,와와호프치킨,서울특별시 강동구 구천면로 378,37.5505928,127.1407248
149,오늘은전,서울특별시 구로구 오리로 1270,37.49499425,126.8307553
150,리치라이브,서울특별시 서초구 서초중앙로22길 47-5,37.4936579,127.016349
151,수딧,서울특별시 성동구 상원1길 5,37.54449335,127.0491211
152,농가,서울특별시 동작구 여의대방로24가길 10,37.49864649,126.9210252
153,럼블6,서울특별시 금천구 독산로75길 21,37.46892629,126.9010813
154,동방포차,서울특별시 양천구 남부순환로83길 17,37.51648475,126.8408836
155,비어셰프냐항,서울특별시 종로구 북촌로1길 30-9,37.57769492,126.9839864
156,휘,서울특별시 중구 충무로 21-3,37.56305517,126.9926519
157,호야,서울특별시 강북구 한천로 1164,37.64777087,127.0161671
158,서울집시,서울특별시 종로구 서순라길 107,37.57503835,126.9915169
159,사람사는이야기442,서울특별시 마포구 어울마당로5길 52,37.55007707,126.9179642
160,슈퍼맨,서울특별시 금천구 가산로 149,37.47851235,126.8903583
161,헨드릭스,서울특별시 송파구 백제고분로17길 55,37.51051865,127.0849902
162,한사발포차,서울특별시 강남구 선릉로129길 9-7,37.51580147,127.0410239
163,보리단란주점,서울특별시 강북구 도봉로 207,37.62705212,127.025458
164,피이엘,서울특별시 강남구 선릉로152길 7,37.52422819,127.0401467
165,초쿤바,서울특별시 마포구 망원로6길 49,37.55475917,126.9039304
166,청담이상점,서울특별시 강서구 마곡중앙로 161-8,37.56861933,126.8272734
167,유희,서울특별시 강남구 도산대로11길 31-8,37.51937373,127.0217469
168,용마산포차,서울특별시 중랑구 면목로33길 6,37.57683089,127.0854813
169,파파호공덕,서울특별시 마포구 마포대로 156,37.5479271,126.9543559
170,플랙스,서울특별시 관악구 남부순환로 1594-1,37.48376016,126.9278426
171,봄,서울특별시 종로구 수표로22길 30,37.57150872,126.9907495
172,싸다회포차,서울특별시 구로구 서해안로26길 18,37.4919073,126.8421003
173,비어킹,서울특별시 강동구 진황도로 94,37.53596556,127.136593
174,봉달이네전집,서울특별시 양천구 남부순환로70길 22,37.52164651,126.8343555
175,웨스턴,서울특별시 성북구 장월로 116,37.61603313,127.0487318
176,월드컵,서울특별시 동대문구 서울시립대로 64,37.57670858,127.0483493
177,미리내호프,서울특별시 강서구 화곡로20길 54,37.53804159,126.8367141
178,모던,서울특별시 노원구 노해로83길 18-3,37.65611069,127.0644386
179,궁전,서울특별시 종로구 대학로1길 23,37.57148419,127.0005759
180,전과함께,서울특별시 성동구 무학봉15길 28-1,37.56359606,127.0303488
181,남희회포장마차,서울특별시 동작구 동작대로27가길 15,37.48684542,126.9812039
182,두리호프,서울특별시 중랑구 중랑역로 38,37.59721319,127.0763084
183,밥과술사이,서울특별시 영등포구 영등포로 392-1,37.51325724,126.9215501
184,오늘맥주한잔,서울특별시 관악구 승방4길 20,37.47459675,126.9808162
185,잔들어호프,서울특별시 양천구 오목로 16-1,37.52130258,126.8396891
186,더헙,서울특별시 성북구 고려대로24가길 8,37.58518073,127.0298198
187,예술가,서울특별시 강남구 언주로170길 35,37.52661347,127.0365184
188,작은거인포차,서울특별시 마포구 굴레방로9길 56,37.55673226,126.9525465
189,이자카야,서울특별시 용산구 새창로 116-3,37.53685312,126.9604623
190,보물성,서울특별시 도봉구 방학로 146,37.66289133,127.0359499
191,탑커피맥주,서울특별시 중랑구 중랑역로 162,37.60780368,127.0767211
192,란카하우스,서울특별시 종로구 삼일대로19길 16,37.5696453,126.9867447
193,가인,서울특별시 강남구 도곡로 229,37.49354976,127.0437851
194,대반전,서울특별시 양천구 신목로 102,37.52357962,126.8757535
195,가맛골양념통닭,서울특별시 강서구 초원로 45,37.56792021,126.8105313
196,동경사회체육교실,서울특별시 성북구 길음로7길 36-12,37.60333492,127.0219622
197,팁시,서울특별시 용산구 녹사평대로54길 16,37.53912943,126.9880856
198,닉스,서울특별시 노원구 공릉로 196,37.62726414,127.0787688
199,비어톡,서울특별시 서초구 서초대로50길 14,37.49254562,127.0126318
200,티룸원더브루,서울특별시 성동구 서울숲길 52,37.54786099,127.0432615
201,왕십리포차,서울특별시 광진구 자양로50길 6,37.55186358,127.0925883
202,오뎅포차정,서울특별시 마포구 양화로6길 17,37.54925861,126.9151807
203,수포차,서울특별시 광진구 능동로36길 55,37.55538689,127.0821217
204,호박성인나이트,서울특별시 은평구 통일로 730,37.61080913,126.9300761
205,쉬즈,서울특별시 송파구 백제고분로7길 15-5,37.51079868,127.0804397
206,연남주막1987,서울특별시 마포구 동교로 212-5,37.5593221,126.9239198
207,퀸즈펍,서울특별시 노원구 공릉로 223,37.62908659,127.0767637
208,앤드,서울특별시 마포구 동교로39길 7,37.56209827,126.924027
209,나인바,서울특별시 성북구 동소문로20다길 15,37.59189053,127.0174807
210,야래향,서울특별시 구로구 구로중앙로8길 17-2,37.49232223,126.8929019
211,현대포차,서울특별시 강북구 도봉로 207,37.62705212,127.025458
212,오토노,서울특별시 마포구 와우산로 28,37.5469706,126.9231242
213,삼육구,서울특별시 마포구 월드컵북로44길 30,37.57635291,126.8957572
214,더쉘터,서울특별시 영등포구 양산로 127-1,37.5240343,126.8972189
215,짝태&노가리,서울특별시 마포구 월드컵북로48길 7,37.57666219,126.894145
216,블랙벨트클럽BBC,서울특별시 용산구 한강대로15길 12-7,37.52632229,126.9638102
217,말자싸롱종암점,서울특별시 성북구 종암로21길 11,37.59923418,127.0338727
218,처음,서울특별시 동작구 상도로 161,37.5037726,126.9368307
219,부라보,서울특별시 양천구 오목로 9,37.52136498,126.8387039
220,티볼리,서울특별시 강서구 화곡로53길 13,37.55129872,126.8480403
221,꼴끼닭,서울특별시 강동구 양재대로128길 26,37.54463429,127.1440976
222,엠플라운지,서울특별시 강남구 논현로 404,37.49620842,127.0394085
223,피플,서울특별시 종로구 종로 246,37.57082862,127.0051014
224,솔향기,서울특별시 노원구 상계로26길 10,37.65806131,127.0706929
225,애창노래바,서울특별시 영등포구 영중로4길 6,37.51706131,126.9070272
226,용마포차,서울특별시 중랑구 용마산로96길 21,37.5902587,127.0986559
227,다루,서울특별시 영등포구 도림로112길 3,37.50873761,126.9004413
228,잘란잘란온이수,서울특별시 동작구 동작대로25길 52-8,37.48516423,126.9795533
229,동네형아,서울특별시 송파구 올림픽로32길 18-11,37.51407076,127.1088147
230,오늘도좋은날,서울특별시 광진구 동일로70길 47,37.56402602,127.0795594
231,은경,서울특별시 광진구 면목로 80,37.56074891,127.0787508
232,술집,서울특별시 동작구 동작대로25길 46,37.48535713,126.9799803
233,망고노래빠,서울특별시 관악구 남부순환로 1588,37.48365388,126.9270526
234,펀비어킹,서울특별시 금천구 독산로64길 4,37.46476478,126.9031656
235,야들리애,서울특별시 양천구 곰달래로 22,37.52972716,126.8351009
236,돼지네포장마차,서울특별시 강남구 학동로81길 7,37.51953768,127.0506709
237,아이리스,서울특별시 성동구 성덕정19길 17,37.53761929,127.0571064
238,위스키서울,서울특별시 용산구 한강대로52길 25,37.53193046,126.9724786
239,수지,서울특별시 송파구 송파대로37길 124,37.49788484,127.0989304
240,노이,서울특별시 송파구 송파대로30길 41-12,37.49680863,127.121132
241,쿠마,서울특별시 성북구 고려대로26길 9,37.58579523,127.0300383
242,아미,서울특별시 마포구 토정로 310-1,37.53993492,126.9432312
243,친구네,서울특별시 양천구 화곡로4길 2,37.53908846,126.8268649
244,사거리식당,서울특별시 광진구 아차산로33길 43,37.54221354,127.0706051
245,혜진네마차,서울특별시 중랑구 용마산로116길 26,37.59935729,127.1019435
246,금별맥주,서울특별시 관악구 신림로 329,37.48369333,126.9294152
247,정인,서울특별시 은평구 연서로29길 20-13,37.6197874,126.9186538
248,브라바,서울특별시 강남구 선릉로155길 29,37.52567235,127.0371302
249,몬스터테이블,서울특별시 광진구 답십리로 382,37.57130511,127.0828547
250,좋아요,서울특별시 영등포구 여의대방로69길 7,37.51975177,126.9312419
251,대명,서울특별시 성북구 보문로 70,37.58164406,127.0216233
252,꼬꼬닭,서울특별시 용산구 한강대로21가길 61,37.52528048,126.9611207
253,딥247,서울특별시 광진구 자양로18길 53,37.53817372,127.0863723
254,주책,서울특별시 송파구 거마로9길 18-12,37.49716917,127.14447
255,강구항을지로골뱅이,서울특별시 서초구 효령로 303,37.48546634,127.0173157
256,타임,서울특별시 용산구 보광로 37-1,37.52755744,126.9994199
257,종합신발,서울특별시 서대문구 증가로10길 12,37.57797693,126.9233004
258,연남마실,서울특별시 마포구 동교로51길 129-2,37.56639407,126.9198449
259,2도맥주,서울특별시 영등포구 선유로 76,37.52064083,126.8898931
260,낭만포차,서울특별시 금천구 남부순환로126길 19,37.47929906,126.906119
261,악당,서울특별시 종로구 삼일대로30길 21,37.57421124,126.9885734
262,휘공,서울특별시 강남구 강남대로158길 26,37.5191775,127.020901
263,을지로골뱅이,서울특별시 서초구 강남대로43길 14-1,37.48760082,127.0313772
264,초이양꼬치·쌀국수,서울특별시 중랑구 봉우재로33길 48,37.59437884,127.0884033
265,하늘아래우리,서울특별시 구로구 디지털로32길 97-16,37.48352371,126.9011276
266,"용용선생1호점,2호점",서울특별시 광진구 아차산로33길 25,37.54146289,127.0702523
267,어게인,서울특별시 강북구 솔매로 91-1,37.62540513,127.0224208
268,신세계,서울특별시 구로구 구로동로 72,37.48531956,126.8860287
269,프릴로제,서울특별시 마포구 성미산로29안길 6-3,37.56489923,126.9229001
270,약속호프,서울특별시 영등포구 대림로29길 43,37.49376017,126.8953912
271,마을호프,서울특별시 구로구 구로중앙로 17,37.49157955,126.8915333
272,작은성,서울특별시 광진구 면목로 113-1,37.56388496,127.0799573
273,여기서놀자,서울특별시 강서구 마곡중앙6로 89,37.56015848,126.8372758
274,닥터스,서울특별시 강남구 선릉로162길 27-3,37.52668483,127.0430794
275,재구네닭발,서울특별시 중구 퇴계로84길 26,37.56457854,127.0194808
276,라비앙로즈,서울특별시 마포구 동교로9길 48,37.55592786,126.9094817
277,보틀즈,서울특별시 양천구 오목로 300,37.52482231,126.8700104
278,노가리와뻑가리,서울특별시 성북구 돌곶이로 43,37.60789551,127.0598216
279,그냥삼겹살집이나할걸그랬다,서울특별시 관악구 시흥대로 566-7,37.48325767,126.9025561
280,코스모스,서울특별시 광진구 면목로 146,37.56622204,127.0815473
281,플레이걸,서울특별시 관악구 대학길 37,37.46900987,126.9378094
282,정,서울특별시 강남구 봉은사로 422,37.51060055,127.0463615
283,오,서울특별시 구로구 새말로 30,37.50243216,126.8843042
284,어셈블,서울특별시 강남구 영동대로85길 34,37.50670598,127.0607302
285,탭앤와인씨앤씨,서울특별시 종로구 종로12길 14,37.56943698,126.9855702
286,고래똥,서울특별시 서초구 효령로49길 33,37.48517756,127.0097097
287,파티,서울특별시 성북구 장위로 89,37.61391675,127.0466294
288,솜사탕,서울특별시 노원구 상계로24길 24,37.6574632,127.0702584
289,아노래짱,서울특별시 강동구 천호대로177길 16,37.53509136,127.1378024
290,다크몬스터,서울특별시 구로구 디지털로32나길 27-8,37.48456037,126.9002078
291,여기가좋겠네,서울특별시 금천구 금하로24길 31,37.44955063,126.9085302
292,복태포차,서울특별시 서초구 강남대로85길 19,37.50722736,127.0217245
293,비앙,서울특별시 영등포구 국제금융로8길 27-9,37.5196676,126.9289127
294,에이치몰트위스키바,서울특별시 강남구 도산대로89길 21,37.52591138,127.0510766
295,발짝,서울특별시 중랑구 중랑역로 73,37.59994639,127.0778487
296,뉴본7080라이브,서울특별시 강북구 도봉로 350,37.6385594,127.0266787
297,94단,서울특별시 은평구 은평로 60-5,37.59837808,126.9146378
298,세종치킨,서울특별시 종로구 새문안로5가길 3-10,37.57235691,126.9741649
299,고대표포차,서울특별시 관악구 관천로 73,37.48512197,126.9240126
300,이찌방이야기,서울특별시 은평구 연서로29길 13,37.61895898,126.9187111
301,윰,서울특별시 양천구 목동중앙북로 83-1,37.54651672,126.8725687
302,721포차,서울특별시 서대문구 응암로1길 18,37.58181331,126.9103157
303,루이스,서울특별시 송파구 오금로11길 55-8,37.51542338,127.1137419
304,마실주점,서울특별시 강동구 양재대로124길 61,37.54250896,127.1455025
305,보네르아띠디,서울특별시 종로구 종로3길 17,37.57098327,126.9788929
306,만리199,서울특별시 중구 만리재로 199,37.55546006,126.9676963
307,끼니땡,서울특별시 양천구 중앙로34길 27,37.52045437,126.8534016
308,세시봉,서울특별시 은평구 통일로 901,37.62346281,126.9195521
309,따봉,서울특별시 강남구 선릉로112길 13,37.51152338,127.0445965
310,남산길,서울특별시 중구 다산로 108,37.55343569,127.0101313
311,인생술집,서울특별시 서대문구 통일로39길 23,37.58764693,126.9434515
312,도즈,서울특별시 마포구 잔다리로 7,37.55054781,126.9221447
313,노래하는청춘열차,서울특별시 구로구 경인로33길 75,37.50119124,126.8507332
314,이자카야유우,서울특별시 관악구 당곡길 74,37.49203542,126.9272494
315,아워캔버스,서울특별시 강동구 천호옛길 57,37.5343932,127.1237461
316,레이블,서울특별시 강남구 학동로53길 19,37.51834126,127.0397697
317,수,서울특별시 강남구 봉은사로49길 7,37.51040268,127.0419526
318,거미집,서울특별시 송파구 마천로51길 9,37.49600819,127.1509068
319,우리포차호프,서울특별시 관악구 난곡로75길 8,37.48580685,126.913193
320,파이프,서울특별시 관악구 신림로59길 15-13,37.48271101,126.9293953
321,사거리포차,서울특별시 노원구 노해로81길 16,37.65562951,127.0628467
322,깊은숲,서울특별시 마포구 독막로 27,37.5484965,126.9165724
323,안암카페씁에스프레소바,서울특별시 성북구 고려대로28길 5,37.58602419,127.0304882
324,히어로포테이토,서울특별시 송파구 풍성로26길 18,37.53208704,127.1189757
325,낭만치맥,서울특별시 서대문구 북아현로1길 17,37.55866007,126.9535155
326,칠점팔,서울특별시 종로구 율곡로6길 27-5,37.5760665,126.9895219
327,주막골,서울특별시 관악구 중앙길 5,37.48361458,126.9538169
328,윈윈,서울특별시 강남구 봉은사로1길 37,37.50711975,127.0239654
329,바스타,서울특별시 광진구 아차산로33길 14,37.54092187,127.0702025
330,나니별관,서울특별시 영등포구 문래로 183,37.5184604,126.9024367
331,인심좋은청년오라비포차,서울특별시 영등포구 도림로59길 4,37.49733767,126.9031644
332,쉘브르,서울특별시 관악구 신림로65길 20,37.4851256,126.9283771
333,강남주막다방,서울특별시 강남구 가로수길 16,37.51900853,127.0233467
334,행당맥주,서울특별시 성동구 행당로17길 22-1,37.56027655,127.0331989
335,역전할머니맥주,서울특별시 노원구 노해로81길 16,37.65562951,127.0628467
336,유명한닭꼬치,서울특별시 동작구 신대방2길 2-5,37.48772281,126.9128373
337,호수,서울특별시 성북구 돌곶이로 44-1,37.60812255,127.0600453
338,그레이바틀,서울특별시 송파구 법원로 114,37.48604895,127.1209979
339,아우라,서울특별시 송파구 석촌호수로18길 10,37.5060638,127.1009472
340,버클,서울특별시 금천구 금하로14길 28,37.4522382,126.903925
341,삼대전집,서울특별시 은평구 연서로24길 1,37.61640454,126.9192012
342,섭스포차,서울특별시 구로구 고척로 148-2,37.50283582,126.8502895
343,모로미쿠시,서울특별시 영등포구 국회대로36길 14-2,37.52600358,126.8977556
344,엑소엑소,서울특별시 마포구 어울마당로 55-2,37.55029288,126.9208696
345,슈가레이,서울특별시 마포구 와우산로 75,37.55124087,126.9230514
346,정남식당,서울특별시 동작구 사당로29가길 36,37.48659869,126.9797599
347,산들애치킨,서울특별시 송파구 삼학사로 91,37.50543845,127.0969282
348,명동포차,서울특별시 중구 명동2길 8,37.56294853,126.9823191
349,마루이,서울특별시 서대문구 통일로 432,37.58774866,126.9457599
350,제이에스,서울특별시 송파구 백제고분로7길 32-11,37.51033875,127.0827076
351,유다,서울특별시 송파구 백제고분로7길 29,37.51089305,127.0821465
352,쫄병닭발,서울특별시 강서구 강서로 22,37.52982752,126.8480877
353,갯마을오징어포차,서울특별시 강서구 양천로 609,37.55523834,126.8659409
354,신월,서울특별시 성동구 연무장1길 8-5,37.54457644,127.0504893
355,젠2,서울특별시 마포구 와우산로21길 28,37.55245092,126.922355
356,창동민호네곱창,서울특별시 도봉구 노해로63길 84-9,37.65253114,127.0472465
357,대회리100번지,서울특별시 중구 마른내로6길 18,37.56339162,126.9951263
358,한국포차,서울특별시 성북구 종암로 132,37.6019072,127.0334984
359,달콤한나의도시,서울특별시 강서구 가로공원로76길 44,37.53504896,126.8375074
360,보물섬,서울특별시 종로구 새문안로5길 13,37.57135874,126.9743936
361,미라클커피호프,서울특별시 도봉구 도봉로 767,37.672921,127.0438458
362,나호프,서울특별시 송파구 백제고분로28길 8,37.50237294,127.0919774
363,무드라운지,서울특별시 마포구 와우산로19길 26,37.55139095,126.9217251
364,미르나루터,서울특별시 강동구 상암로 53-7,37.5497072,127.1293046
365,투다리화곡,서울특별시 강서구 까치산로 30,37.54220156,126.8437671
366,피쳐호프,서울특별시 영등포구 대림로34길 14,37.49879317,126.8998068
367,열두테이블,서울특별시 강동구 천호대로159길 33,37.53902777,127.127822
368,쓰리놈노래바,서울특별시 강서구 월정로 112,37.52915253,126.8389679
369,향수27080라이브,서울특별시 강서구 공항대로36길 129,37.55276398,126.8357497
370,팡팡,서울특별시 용산구 한강대로 144,37.53193478,126.9709058
371,집시포차,서울특별시 중구 퇴계로42길 5,37.56145974,126.9968161
372,노가리랑닭발,서울특별시 마포구 월드컵로 133,37.5598367,126.90638
373,토리니쿠,서울특별시 강남구 역삼로4길 16,37.49239959,127.032005
374,원,서울특별시 서대문구 연희로 151,37.57096411,126.9339179
375,지그재그,서울특별시 마포구 와우산로21길 19-16,37.55181271,126.9225226
376,없음,서울특별시 마포구 월드컵북로5길 65,37.55591176,126.9155596
377,파티파티,서울특별시 동작구 상도로 152,37.50294725,126.9362317
378,호프이야기,서울특별시 금천구 남부순환로112길 31,37.47738651,126.8942529
379,말로만호프집,서울특별시 강동구 동남로81길 26,37.560375,127.155259
380,손큰할매순대국추계점,서울특별시 서대문구 북아현로 58,37.56249104,126.9557257
381,야수에프엔비,서울특별시 강남구 도산대로101길 3,37.5252927,127.0525778
382,크리드705,서울특별시 강남구 강남대로84길 16,37.49668122,127.0300046
383,준코-신림,서울특별시 관악구 신림로 344,37.48513994,126.9299599
384,퓨쳐팩토리,서울특별시 서초구 사임당로 58,37.48864745,127.016279
385,타일,서울특별시 마포구 광성로4길 11-8,37.54936557,126.937847
386,루즈페퍼,서울특별시 강서구 마곡중앙로 171,37.56902066,126.8277652
387,수을관,서울특별시 마포구 동교로38길 19,37.56203018,126.9254542
388,으뜸호프,서울특별시 동대문구 장한로14길 8,37.5662462,127.0685294
389,막퍼주는보쌈칼국수,서울특별시 성동구 금호산길 55,37.5532053,127.0192337
390,카페이음,서울특별시 영등포구 영중로 12,37.51760595,126.9064876
391,한앤둘치킨,서울특별시 강남구 논현로 509,37.50192101,127.0360781
392,로망스,서울특별시 도봉구 우이천로 192,37.63730636,127.0364845
393,워너원,서울특별시 강남구 봉은사로 177,37.50735763,127.0331692
394,수,서울특별시 관악구 남부순환로226길 12,37.48008189,126.9537531
395,주촌포차,서울특별시 노원구 상계로 317,37.67071844,127.0807371
396,짱노래주점,서울특별시 동대문구 왕산로 236,37.58232233,127.0483797
397,술마시는뮤직노래방,서울특별시 광진구 구의로 72,37.54441545,127.0907095
398,미호프,서울특별시 영등포구 디지털로 378-1,37.49078257,126.901711
399,케이엠지엠,서울특별시 서초구 방배천로 17,37.47806945,126.9822841
400,샤또고래,서울특별시 마포구 월드컵북로42다길 32,37.57629874,126.8967089
401,꽃돼지포차,서울특별시 중구 퇴계로87길 3-1,37.5659159,127.0210254
402,인생포차,서울특별시 금천구 금하로24길 46,37.44886414,126.908348
403,미쓰포차,서울특별시 구로구 오리로15길 42,37.49424208,126.8312307
404,공연하닭,서울특별시 관악구 솔밭로 4,37.47790858,126.9627492
405,왕터,서울특별시 구로구 공원로7길 19,37.50169234,126.8880248
406,쉼터4050라이브,서울특별시 영등포구 양평로 104,37.53700742,126.8960548
407,숯불닭,서울특별시 동작구 사당로17가길 13,37.48380447,126.9734094
408,지구상사,서울특별시 광진구 아차산로33길 27,37.54156191,127.0702398
409,앤드그레이,서울특별시 영등포구 선유로33길 4,37.52668408,126.8905615
410,한판승부,서울특별시 은평구 통일로83길 11-6,37.62049725,126.9184396
411,캔디노래바,서울특별시 동대문구 장한로 122,37.57126971,127.0714102
412,퓨전,서울특별시 양천구 중앙로 288,37.52192164,126.8523271
413,써니포차,서울특별시 동대문구 고미술로 99,37.56410804,127.0579725
414,필,서울특별시 양천구 지양로 66,37.52159957,126.8341639
415,소특육회,서울특별시 강북구 노해로8가길 34,37.63949005,127.0237206
416,오사카부루스,서울특별시 구로구 경인로 196,37.49537531,126.8429175
417,그린퓨전포차,서울특별시 강동구 풍성로57길 24,37.52998089,127.1363678
418,앵거스,서울특별시 서초구 효령로55길 22,37.48578676,127.0146769
419,영애호프,서울특별시 강동구 양재대로95길 12,37.53025904,127.1362062
420,이찌방이야기,서울특별시 광진구 동일로22길 57,37.54179214,127.0674419
421,괴르츠,서울특별시 광진구 아차산로78길 110,37.54997899,127.1101641
422,몽움,서울특별시 광진구 아차산로25길 24,37.54239266,127.0670384
423,브라보7080라이브,서울특별시 중랑구 면목로 456,37.59255592,127.0868742
424,맛좋은우리집,서울특별시 중구 만리재로 217,37.55687908,126.9681974
425,스토리노래바,서울특별시 강서구 화곡로58길 8,37.55289716,126.8511845
426,내가먹는세상,서울특별시 용산구 우사단로10길 58-1,37.53246137,126.998619
427,가우초,서울특별시 마포구 양화로 32,37.54855102,126.9127013
428,노가리앤비어,서울특별시 강남구 논현로 333,37.49489274,127.0393914
429,마하,서울특별시 마포구 신촌로4길 22-10,37.55721281,126.927787
430,목동포차,서울특별시 구로구 경인로 661,37.50903488,126.8869658
431,블랙보틀,서울특별시 서대문구 통일로 105,37.56430723,126.9675743
432,커플노래주점,서울특별시 종로구 삼일대로15길 3,37.56874854,126.9872436
433,포스1,서울특별시 구로구 구로중앙로 58,37.49483989,126.8894609
434,경성술집,서울특별시 송파구 백제고분로19길 23,37.50690392,127.0871268
435,하나노마이,서울특별시 중구 남대문로 7,37.5608353,126.9765526
436,케이1,서울특별시 구로구 가마산로 225,37.49408668,126.8860229
437,누바,서울특별시 마포구 와우산로29바길 20,37.55555389,126.9256943
438,신사그라제,서울특별시 강남구 도산대로1길 26-3,37.51865627,127.0199802
439,어쨌든_술집,서울특별시 영등포구 당산로47길 12,37.5352352,126.9021569
440,물소리,서울특별시 관악구 봉천로12길 69,37.48571961,126.9302909
441,올디너리포차,서울특별시 마포구 동교로 266-7,37.56308755,126.9258012
442,바비싱,서울특별시 송파구 백제고분로31길 5,37.50309142,127.0951921
443,히읗A,서울특별시 관악구 봉천로 473-9,37.48272275,126.952823
444,버디,서울특별시 영등포구 양평로 66,37.5352025,126.8996116
445,술개구리,서울특별시 마포구 양화로6길 77,37.54858652,126.9185289
446,LP음악카페쎄시봉,서울특별시 동작구 동작대로 43,37.48047679,126.9814148
447,오헤어22,서울특별시 중구 만리재로 201,37.55559629,126.9678189
448,인자왔소,서울특별시 영등포구 선유서로25길 10,37.52456751,126.8849136
449,개미호프,서울특별시 금천구 독산로 266,37.47036793,126.9030159
450,우리집,서울특별시 광진구 구의강변로 86,37.53810651,127.0940224
451,유메,서울특별시 마포구 양화로8길 32-5,37.54922323,126.9162337
452,써니,서울특별시 종로구 새문안로3길 36,37.57337649,126.9732905
453,훼미리포차,서울특별시 마포구 어울마당로 55,37.55004963,126.9208731
454,블라인드피그,서울특별시 용산구 대사관로 62,37.53319973,127.0049566
455,바라보다,서울특별시 광진구 면목로 183,37.56942219,127.0828891
456,달리는토끼,서울특별시 강남구 봉은사로 150,37.50584508,127.0311189
457,크리드CREED,서울특별시 강남구 선릉로93길 17,37.50493888,127.0471008
458,삼시펍,서울특별시 강동구 진황도로47길 57,37.53724615,127.140448
459,이닌스페이스,서울특별시 서대문구 연세로5길 26,37.55657,126.9354132
460,순라길비비,서울특별시 종로구 서순라길 55,37.57295153,126.9929941
461,술이있는미술관,서울특별시 중랑구 봉화산로 99,37.60251804,127.0852689
462,꽃지로,서울특별시 중구 을지로12길 16,37.56559062,126.9909538
463,리치,서울특별시 영등포구 여의대방로 87,37.49716153,126.9162967
464,아게하,서울특별시 강남구 논현로152길 5,37.52097141,127.0286381
465,스펠,서울특별시 서초구 사평대로57길 57,37.50675416,127.0222509
466,치우룽샤,서울특별시 영등포구 도림로38길 8,37.49225652,126.8974375
467,강동수제꼬치,서울특별시 강동구 양재대로143길 18,37.55168952,127.1428512
468,킹스비어,서울특별시 동대문구 회기로 195,37.59020843,127.0576097
469,탬버린,서울특별시 종로구 종로46길 1,37.57137388,127.0110147
470,짝태&노가리,서울특별시 구로구 공원로6나길 12,37.50366438,126.8907665
471,선이네포차,서울특별시 관악구 신원로3길 62,37.48321718,126.9256003
472,계절포차,서울특별시 구로구 경인로19가길 14-1,37.49667212,126.8437683
473,욜로,서울특별시 송파구 법원로 128,37.48683795,127.1204685
474,네이버후드,서울특별시 서대문구 연세로7안길 41,37.55816497,126.9344285
475,투다리개롱역점,서울특별시 송파구 오금로44나길 17,37.49713836,127.1352872
476,삼양포차,서울특별시 강북구 솔샘로 159,37.62181653,127.0123859
477,에스비에스,서울특별시 송파구 석촌호수로 194,37.50623482,127.0985586
478,이인,서울특별시 마포구 백범로 152,37.54473719,126.9482444
479,불꽃,서울특별시 중랑구 면목로 209,37.57189469,127.0833568
480,무제,서울특별시 강서구 공항대로 423,37.55555901,126.8543579
481,대동집미아,서울특별시 강북구 도봉로6길 8,37.61252477,127.0306087
482,태양호프막걸리,서울특별시 관악구 남부순환로161길 6,37.48354959,126.9215363
483,엠만남,서울특별시 양천구 등촌로 46,37.53382998,126.8640928
484,썬,서울특별시 성동구 성덕정길 134,37.53644716,127.0581396
485,미주류,서울특별시 광진구 동일로32길 18,37.54919396,127.0691151
486,팝콘노래빠,서울특별시 관악구 남부순환로 1601-1,37.48436175,126.9286029
487,테라주점,서울특별시 관악구 보라매로 11,37.49044005,126.927193
488,무지개주점,서울특별시 영등포구 여의나루로 42,37.52138885,126.9249739
489,홈런,서울특별시 노원구 한글비석로23길 7,37.66045461,127.0713998
490,젠틀맨,서울특별시 종로구 수표로22길 39,37.57141242,126.9910791
491,때때로비,서울특별시 중랑구 동일로129길 42,37.59974535,127.0774888
492,서울지짐이,서울특별시 은평구 불광로 15,37.60992421,126.9278802
493,현대커피호프,서울특별시 강동구 구천면로 319,37.54811058,127.1351967
494,스카이,서울특별시 양천구 신월로35길 1,37.52215763,126.8580817
495,이입,서울특별시 마포구 와우산로21길 20-6,37.55260965,126.9229638
496,준하네포차,서울특별시 광진구 동일로18길 62,37.53899681,127.0660396
497,엠,서울특별시 강남구 삼성로96길 27,37.50933284,127.0579374
498,페일,서울특별시 용산구 소월로20길 78,37.54358898,126.9838158
499,호프하우스,서울특별시 금천구 독산로 289,37.47254838,126.9030067
500,대세,서울특별시 강북구 노해로8가길 34-1,37.63957911,127.0235948
501,그랑베베도라,서울특별시 종로구 옥인길 15,37.58050834,126.9676223
502,유씨몽키,서울특별시 용산구 대사관로12길 4-2,37.53352141,127.0014334
503,지금보고싶다,서울특별시 강북구 도봉로8길 35,37.61222144,127.0320737
504,펍피맥,서울특별시 서초구 반포대로30길 90,37.49265077,127.0133541
505,메세노래바,서울특별시 강서구 공항대로46길 82,37.55267885,126.8509728
506,위스키디에이,서울특별시 강남구 테헤란로87길 17,37.50873226,127.0583295
507,바츠라운지,서울특별시 광진구 아차산로49길 41-5,37.53865067,127.0839676
508,김복남맥주왕십리,서울특별시 성동구 마조로3가길 25,37.55964733,127.0400095
509,미요리포차,서울특별시 금천구 시흥대로123길 38,37.47115206,126.8962666
510,방탄,서울특별시 강남구 강남대로 320,37.49184194,127.0310284
511,"오늘,와인한잔",서울특별시 강남구 봉은사로1길 33,37.50685959,127.0241045
512,W유흥주점,서울특별시 관악구 남부순환로 1594-6,37.483581,126.9279582
513,주유소,서울특별시 마포구 월드컵북로48길 55-2,37.57810554,126.8962521
514,에너지,서울특별시 마포구 백범로 109,37.54734369,126.9434774
515,딱좋아좋아,서울특별시 관악구 미성3길 12,37.47395266,126.9165302
516,비와이디,서울특별시 강남구 언주로93길 14-3,37.50392203,127.0405877
517,이화양꼬치,서울특별시 양천구 목동동로 226-5,37.52564607,126.8722946
518,버건디,서울특별시 마포구 독막로7길 47,37.54991212,126.9196302
519,삼삼불닭발,서울특별시 성동구 광나루로11길 50,37.5519195,127.0685267
520,프랑스포차,서울특별시 성동구 연무장5가길 20,37.54335824,127.0547596
521,회전목마,서울특별시 용산구 소월로20길 26-6,37.54523979,126.9850834
522,궁전,서울특별시 광진구 자양로13길 26,37.53517123,127.0826298
523,오야,서울특별시 마포구 홍익로5길 25,37.55378151,126.9210456
524,사개,서울특별시 광진구 아차산로29길 34,37.54227207,127.0688844
525,퀸,서울특별시 은평구 진흥로 201,37.60924628,126.9316161
526,썸노래,서울특별시 노원구 노해로75길 14-17,37.65465607,127.0582804
527,막둥이네만남의장소,서울특별시 도봉구 도봉산4나길 11,37.68835871,127.0431148
528,일번지7080,서울특별시 양천구 신월로 297,37.52149667,126.8540305
529,프렌즈,서울특별시 광진구 뚝섬로 476-21,37.53637921,127.0620554
530,위대한치킨동무앤호프,서울특별시 마포구 모래내로3길 3,37.56462086,126.9053706
531,모로미쿠시,서울특별시 마포구 백범로 82,37.54757,126.9405772
532,라스베가스,서울특별시 종로구 우정국로2길 31,37.5696649,126.9848313
533,제주은희네해장국예술의전당점,서울특별시 서초구 반포대로12길 14,37.48466625,127.0121362
534,광부맥주,서울특별시 영등포구 영등포로 248,37.51887025,126.908743
535,진미네2,서울특별시 중구 마른내로6길 33,37.56269876,126.9952375
536,소주관,서울특별시 구로구 구로동로 83,37.48612399,126.8853383
537,역전할머니맥주,서울특별시 영등포구 신길로 67,37.49875306,126.9081084
538,미스터숯불꼬치,서울특별시 강북구 월계로7길 34,37.61156458,127.0332828
539,놀부포차,서울특별시 강남구 밤고개로1길 30,37.4886722,127.1031685
540,카톡,서울특별시 송파구 백제고분로7길 15,37.51061893,127.0804984
541,레타주,서울특별시 성동구 왕십리로10길 19-2,37.54656523,127.0468201
542,보물섬노래빠,서울특별시 동작구 상도로 99,37.50036263,126.9313939
543,느리게걷기,서울특별시 강남구 도산대로 225,37.521093,127.0313743
544,야후노래바,서울특별시 강서구 공항대로 423,37.55555901,126.8543579
545,조은집호프.포차,서울특별시 송파구 백제고분로28길 6,37.5025359,127.0920772
546,더팬트리,서울특별시 용산구 이태원로26길 16,37.5336864,126.9932734
547,쌍쌍파티,서울특별시 중구 퇴계로78길 6,37.5650602,127.0167239
548,베스트노래클럽,서울특별시 성동구 무학로2길 38,37.56306448,127.0336496
549,정티브루어,서울특별시 종로구 서순라길 115,37.57539795,126.9914215
550,올식,서울특별시 종로구 수표로22길 21,37.57133541,126.9905028
551,봄베이,서울특별시 관악구 봉천로 563,37.47781484,126.9602857
552,흑산도아짐,서울특별시 노원구 동일로241길 11,37.67662184,127.0547266
553,고울,서울특별시 강서구 마곡중앙8로 86,37.56061436,126.8369065
554,고삐,서울특별시 강남구 선릉로157길 21,37.52604103,127.0381436
555,다온,서울특별시 서초구 서초중앙로 89,37.48975526,127.0140594
556,네꼬,서울특별시 동작구 사당로30길 133,37.47881387,126.9808381
557,어스름,서울특별시 종로구 동숭2길 7-4,37.58098904,127.0047058
558,성공is100,서울특별시 성동구 성덕정길 39,37.5388527,127.0479933
559,쉼,서울특별시 종로구 자하문로1길 37,37.57652016,126.9700774
560,갤러리,서울특별시 은평구 응암로 336,37.60108189,126.9225825
561,스낵Snacc,서울특별시 강남구 도산대로49길 34,37.52513206,127.0371711
562,돌마리,서울특별시 송파구 올림픽로32길 22-10,37.51393672,127.1089633
563,엘리스,서울특별시 성북구 돌곶이로 65,37.6094953,127.0581819
564,집시,서울특별시 용산구 보광로60길 9,37.53404071,126.9946716
565,에스,서울특별시 양천구 은행정로18길 22,37.52624327,126.861289
566,밴틀리룸노래빠,서울특별시 관악구 신림로 355,37.48603391,126.9291783
567,한솔,서울특별시 금천구 가산로 154,37.47891925,126.8905106
568,장미맨숀잠실,서울특별시 송파구 백제고분로7길 27,37.51087275,127.0818527
569,별밤7080라이브,서울특별시 중구 퇴계로 443,37.56583378,127.020902
570,비어스토리,서울특별시 노원구 동일로242가길 14-5,37.67643498,127.056146
571,블룸,서울특별시 마포구 토정로37길 13,37.54066882,126.9446919
572,추억만들기,서울특별시 강동구 양재대로 1355,37.5273892,127.1355944
573,포차천국,서울특별시 관악구 남부순환로 1750,37.4818821,126.9444225
574,밤고개포차,서울특별시 강남구 광평로51길 6-5,37.4883536,127.1027426
575,크래프트한스,서울특별시 강서구 마곡중앙8로 90,37.56055788,126.8375752
576,엔돌핀,서울특별시 양천구 등촌로 220,37.54932696,126.8640047
577,홍키주가,서울특별시 동작구 동작대로3길 29,37.47840741,126.9796791
578,앤바,서울특별시 강남구 삼성로85길 33,37.50427998,127.0548114
579,이화성곽길주막,서울특별시 중구 퇴계로56길 50,37.561768,127.0055615
580,쉼터호프포차,서울특별시 관악구 난곡로35길 10,37.47286854,126.9181851
581,팡팡노래주점,서울특별시 중구 퇴계로 418-1,37.56533315,127.0181239
582,짱노래클럽,서울특별시 강남구 언주로134길 24,37.51678257,127.0375725
583,부뚜막,서울특별시 광진구 능동로37길 17,37.55811916,127.078919
584,히피히피,서울특별시 중구 마장로5길 23-20,37.56980627,127.0185973
585,파라다이스,서울특별시 영등포구 대림로23길 30-1,37.49268122,126.897567
586,미스트롯,서울특별시 서대문구 모래내로 247,37.57585492,126.925765
587,준코-케이펍,서울특별시 관악구 남현1길 47,37.47597836,126.9801191
588,안주마을,서울특별시 종로구 종로51길 33,37.57342992,127.0112139
589,샘포장마차,서울특별시 관악구 미성3길 4,37.47417509,126.9162217
590,벧엘카페,서울특별시 관악구 난곡로 220,37.47427285,126.9180405
591,탱글이문어,서울특별시 강북구 한천로144길 23-8,37.64229239,127.0259161
592,야밤또주,서울특별시 광진구 아차산로 295,37.53862403,127.0759227
593,청담포차,서울특별시 강서구 마곡중앙8로 90,37.56055788,126.8375752
594,행님아,서울특별시 동대문구 왕산로 209,37.58096836,127.0458496
595,리치,서울특별시 구로구 남부순환로97길 26-2,37.49409914,126.8590066
596,쥬얼리,서울특별시 서대문구 통일로 414,37.58647156,126.9470347
597,쥬크비어,서울특별시 영등포구 양평로 67,37.53492927,126.8992988
598,맥주야,서울특별시 강남구 선릉로86길 46,37.50403486,127.0534573
599,피씨씨,서울특별시 성동구 성수일로 48,37.54467127,127.0499562
600,간이역왕노가리,서울특별시 금천구 금하로 671,37.45295171,126.9050787
601,1943,서울특별시 노원구 상계로 64,37.655787,127.0622554
602,배트맨호프,서울특별시 중랑구 중랑역로 228,37.61367875,127.0756064
603,인쌩맥주신림역점,서울특별시 관악구 신림로 327,37.48346032,126.9295542
604,짝노래빠,서울특별시 금천구 남부순환로 1432,37.4805937,126.9097069
605,이자카야정,서울특별시 용산구 한강대로 205,37.53658097,126.9726071
606,노가리이야기,서울특별시 동대문구 전농로17길 7,37.57847735,127.0565462
607,비젼21단란주점,서울특별시 관악구 신림로 354,37.48597761,126.9299254
608,이화,서울특별시 강서구 강서로5나길 12,37.52873191,126.8475389
609,다원,서울특별시 강동구 천호대로188길 5,37.53370675,127.1431702
610,미스터·유,서울특별시 마포구 신촌로16길 30,37.55440597,126.9342444
611,퍼블릭,서울특별시 마포구 매봉산로2길 19-5,37.57847429,126.8952164
612,메가비어,서울특별시 은평구 통일로 1034,37.63534678,126.9175219
613,3층인데괜찮아,서울특별시 구로구 경인로47길 14,37.50023141,126.8670335
614,프라이빗,서울특별시 서초구 강남대로 437,37.50135666,127.0254994
615,로프트230,서울특별시 용산구 이태원로 230,37.53548539,126.9992687
616,곳간,서울특별시 구로구 개봉로3길 19-1,37.48624107,126.8551799
617,윌,서울특별시 종로구 대명1길 7,37.58312011,127.0009864
618,팡팡,서울특별시 강북구 한천로 1008,37.63842056,127.0295131
619,새실,서울특별시 용산구 이태원로27가길 5,37.53498048,126.9949872
620,광어2마리,서울특별시 성북구 장위로 99,37.61379057,127.047741
621,돌싱커피호프,서울특별시 관악구 남부순환로 1766,37.4816722,126.9461441
622,하늘공원호프,서울특별시 강서구 곰달래로 55,37.53017856,126.8388501
623,카페빵쌤,서울특별시 종로구 대명길 32,37.5832357,126.9997394
624,산타나포차,서울특별시 동대문구 왕산로 266-1,37.58434113,127.0506751
625,투다리,서울특별시 강동구 올림픽로 816,37.55369727,127.1290885
626,미미,서울특별시 은평구 연서로 276,37.62064032,126.9252228
627,게임,서울특별시 강남구 도산대로 205,37.52047681,127.0287577
628,역전할머니맥주,서울특별시 동대문구 경희대로1길 7,37.59160262,127.0516813
629,유끼,서울특별시 양천구 지양로9길 3,37.52209268,126.8330023
630,투다리꼬치구이,서울특별시 용산구 청파로89길 41,37.55312685,126.9667213
631,낭만짚불구이,서울특별시 강남구 테헤란로1길 28-14,37.50035425,127.0285095
632,건배,서울특별시 종로구 종로35길 19,37.57204302,127.0037947
633,향연,서울특별시 중구 청계천로 166-1,37.56837338,126.9960668
634,술익는고을,서울특별시 강북구 삼양로173길 42,37.66259613,127.0101004
635,이치방,서울특별시 강서구 강서로 271,37.54994642,126.8360198
636,썬호프,서울특별시 금천구 독산로 292,37.47276817,126.9033878
637,주궁,서울특별시 구로구 경인로47길 22,37.50050809,126.8667579
638,조은날,서울특별시 서대문구 증가로25길 12,37.58146425,126.9135022
639,진성모이세호프&포차,서울특별시 관악구 남부순환로 1677-35,37.48492648,126.9372561
640,풀잎,서울특별시 관악구 관악로 188-2,37.48177086,126.9531868
641,레벤호프,서울특별시 동대문구 전농로 94,37.57317085,127.0577565
642,동락호프,서울특별시 강서구 까치산로17길 5,37.54803817,126.8490863
643,부기우기,서울특별시 용산구 회나무로 21,37.53920926,126.9889898
644,단밤,서울특별시 동대문구 황물로 168,37.56511239,127.0562393
645,더비어,서울특별시 동대문구 왕산로16길 18,37.57706348,127.0310572
646,성미양꼬치,서울특별시 종로구 종로31길 19,37.57174642,126.9996214
647,호프포차,서울특별시 중랑구 용마산로 511-1,37.59667526,127.0999827
648,발리투,서울특별시 종로구 종로 236-1,37.57071211,127.0041068
649,진오돌뼈,서울특별시 서초구 효령로53길 67,37.48761748,127.012708
650,옥이네크림비어,서울특별시 강서구 마곡중앙로 161-22,37.56863139,126.8257677
651,우주닭호프,서울특별시 용산구 이촌로 101,37.52408412,126.9593046
652,홀맥,서울특별시 서초구 남부순환로350길 25,37.48372056,127.0361876
653,무디,서울특별시 마포구 성미산로29안길 26,37.56546462,126.923639
654,니가사라,서울특별시 마포구 백범로 127,37.54654125,126.9454352
655,공항하우스,서울특별시 강서구 공항대로 23,37.56172281,126.8098036
656,용비어천가,서울특별시 성북구 정릉로6길 37,37.61028498,126.9944504
657,무음茂蔭,서울특별시 동작구 흑석로 24-1,37.50486613,126.9533395
658,행운커피호프,서울특별시 노원구 한글비석로23길 37,37.65919106,127.0711322
659,위드노라바,서울특별시 종로구 종로48길 15-4,37.57158052,127.0120195
660,우동포차,서울특별시 관악구 원신3길 3,37.46933426,126.9318132
661,유정,서울특별시 노원구 상계로24길 9,37.65794685,127.0698897
662,나루터,서울특별시 강북구 삼양로 623,37.65842618,127.0135445
663,대명,서울특별시 종로구 서순라길 29,37.57194818,126.9936755
664,블루카페,서울특별시 중랑구 중랑역로 256,37.61557176,127.0768629
665,7080학창시절,서울특별시 송파구 오금로59길 3,37.4937491,127.1437739
666,로얄빠,서울특별시 영등포구 디지털로 379,37.49102414,126.9015266
667,어랑주막,서울특별시 금천구 독산로93길 11,37.47385996,126.9025805
668,제이라이브7080,서울특별시 광진구 천호대로112길 7,37.55564394,127.0815753
669,미바호스피탈리티,서울특별시 동대문구 천장산로7길 8,37.59863125,127.0573676
670,이자카야빈,서울특별시 강서구 곰달래로24길 19,37.52975595,126.8472176
671,사가정포차,서울특별시 중랑구 사가정로50길 10,37.58038734,127.0862983
672,별이빛나는밤에뮤직클래스,서울특별시 송파구 올림픽로32길 22,37.51402938,127.1093016
673,버블천국,서울특별시 금천구 금하로 617-2,37.45477779,126.8998981
674,신세계,서울특별시 동대문구 장한로24길 7,37.57089184,127.0714828
675,동해남부선,서울특별시 종로구 돈화문로11길 21,37.57247718,126.9902043
676,불탄숯불바베큐퓨전포차,서울특별시 양천구 신월로 175,37.5188345,126.8425214
677,싸다편의방포차,서울특별시 송파구 마천로 331,37.49400572,127.1518681
678,투다리수서점,서울특별시 강남구 광평로51길 8,37.48836055,127.1024712
679,마루,서울특별시 마포구 성암로3길 14,37.568945,126.9111258
680,베르문도,서울특별시 강남구 봉은사로 434,37.51092537,127.0475337
681,맥주활력수수서역점,서울특별시 강남구 광평로 280,37.48731104,127.1030943
682,인쌩맥주,서울특별시 광진구 아차산로25길 14,37.54197651,127.0668285
683,왕노가리호프,서울특별시 관악구 남부순환로272길 8,37.47621441,126.9782391
684,오프OFF,서울특별시 관악구 신림로 309,37.48201043,126.9296428
685,철탑,서울특별시 동대문구 약령중앙로 18,37.57978886,127.037079
686,레드스타,서울특별시 중구 수표로 48-12,37.56548687,126.9904119
687,금향원훈장소관,서울특별시 영등포구 도신로 195,37.51152064,126.9129673
688,파도포차,서울특별시 강북구 도봉로87길 32-4,37.63912498,127.0242466
689,금강호프,서울특별시 구로구 고척로 103,37.50139387,126.8456407
690,네박자에서,서울특별시 금천구 독산로73길 9,37.46771235,126.9013478
691,술술,서울특별시 은평구 연서로29길 21-11,37.61890593,126.9178397
692,썬메들리,서울특별시 은평구 역말로 100,37.60807982,126.920273
693,루프팔공팔,서울특별시 강남구 강남대로 470,37.50433538,127.0250422
694,인생의하이라이트,서울특별시 용산구 이촌로77길 19,37.5204269,126.9748763
695,청담이상,서울특별시 구로구 경인로 661,37.50903488,126.8869658
696,여니포차,서울특별시 강북구 삼양로 625-1,37.65877812,127.0136078
697,울트라치킹스,서울특별시 중랑구 봉화산로20길 37,37.59989541,127.0817111
698,큰집빈대떡포차,서울특별시 성동구 장터길 35-1,37.54839968,127.0199531
699,송민커피호프,서울특별시 도봉구 도봉로 728,37.66928976,127.0438358
700,치어스,서울특별시 도봉구 도봉로152길 16,37.6690898,127.0447338
701,마당라이브주점,서울특별시 강동구 천호대로 1134,37.5339972,127.1372719
702,루비노,서울특별시 서초구 강남대로 617,37.51682695,127.018873
703,브롱스,서울특별시 서초구 강남대로 160-2,37.47892278,127.0389967
704,피아노,서울특별시 금천구 시흥대로50길 9,37.45143269,126.9025692
705,바펄스,서울특별시 강남구 논현로150길 19,37.51954094,127.0300029
706,모두랑,서울특별시 마포구 월드컵북로 216,37.56984385,126.9050451
707,실내포장마차,서울특별시 성동구 성덕정15길 6-15,37.53835121,127.0539855
708,봉구비어,서울특별시 마포구 동교로36길 3,37.56128328,126.9245707
709,웃웃,서울특별시 광진구 뚝섬로 476-15,37.53637272,127.0623723
710,섬,서울특별시 종로구 새문안로5길 14,37.57143554,126.974936
711,락락,서울특별시 관악구 대학5길 18,37.46916214,126.9387116
712,투다리수락산역점,서울특별시 노원구 동일로241길 36,37.67776394,127.0544514
713,쎄븐,서울특별시 성동구 광나루로 315,37.54833092,127.0648028
714,오늘우리집비어,서울특별시 중랑구 용마산로115길 109,37.59744152,127.0941414
715,사육장,서울특별시 영등포구 국회대로54길 10,37.52357026,126.9064232
716,이쁜이호프,서울특별시 구로구 구로동로42길 58,37.49819667,126.8842429
717,제로원홀덤,서울특별시 서대문구 연세로9길 20,37.55860935,126.9357464
718,스틸,서울특별시 영등포구 국제금융로 86,37.52019814,126.9317785
719,주막집,서울특별시 구로구 구로동로20길 13,37.4889162,126.885229
720,쑥맥,서울특별시 중랑구 봉우재로33길 35,37.59415744,127.0877379
721,종로생골뱅이,서울특별시 종로구 대학로1길 3,37.57132221,127.0016648
722,동문포장마차,서울특별시 양천구 목동중앙북로7길 26,37.54888633,126.8678478
723,에이원,서울특별시 강남구 테헤란로63길 9,37.5057464,127.0500312
724,동네놀이터,서울특별시 중랑구 겸재로 156-1,37.58765895,127.0851564
725,트로트7080,서울특별시 동대문구 천호대로 269,37.56795052,127.0517208
726,깃털,서울특별시 마포구 동교로 212-2,37.55910598,126.9239342
727,쓰리에프,서울특별시 동작구 동작대로27가길 12,37.48710455,126.9809516
728,사이조케,서울특별시 도봉구 도봉로110길 67,37.64637767,127.0373305
729,광장호프,서울특별시 중구 을지로36길 40,37.56494163,127.0015235
730,깨비포차,서울특별시 도봉구 도봉로169나길 42-1,37.67771214,127.0435576
731,남도포차,서울특별시 관악구 난곡로24길 26,37.4692542,126.9210182
732,락포차외대점,서울특별시 동대문구 휘경로 20,37.59548752,127.0620048
733,별노래바,서울특별시 금천구 독산로 358,37.47869377,126.9040022
734,매치볼하우스,서울특별시 도봉구 도봉로 497,37.64998157,127.0350969
735,노가리랑맥주한박스,서울특별시 영등포구 양평로 64-5,37.5353478,126.8997339
736,술이야,서울특별시 동대문구 이문로28길 12,37.59564573,127.0603721
737,친구야7080라이브,서울특별시 강북구 도봉로6길 12,37.61245372,127.0307342
738,윤세영선술,서울특별시 강남구 도산대로34길 38,37.51792228,127.0314944
739,노말살롱,서울특별시 도봉구 도봉로149길 5-3,37.66584598,127.0424971
740,연보라,서울특별시 은평구 응암로13길 25,37.58877321,126.9146528
741,누나홀닭,서울특별시 용산구 후암로 97-2,37.55336629,126.9745497
742,시그널,서울특별시 금천구 독산로 112,37.45737172,126.905602
743,환희,서울특별시 강서구 마곡중앙6로 21,37.5608215,126.8296028
744,세시봉7080,서울특별시 노원구 동일로 1382,37.6519879,127.0615325
745,은하수,서울특별시 양천구 등촌로 16,37.53137908,126.8640847
746,상안포차,서울특별시 마포구 성암로3길 38,37.56793305,126.9108235
747,스칼렛,서울특별시 광진구 아차산로51길 36,37.53850628,127.0851009
748,후쿠야,서울특별시 구로구 경인로23길 8,37.49680102,126.844049
749,해시태그술,서울특별시 강서구 강서로5나길 53,37.52820475,126.8452277
750,메가비어상일점,서울특별시 강동구 상일로7길 12-8,37.55024985,127.1721795
751,오늘와인한잔석촌역점,서울특별시 송파구 백제고분로41길 13,37.50718802,127.1077994
752,라키식당,서울특별시 강북구 노해로8길 33,37.63857747,127.024503
753,가을7080라이브,서울특별시 성북구 동소문로20길 29,37.59133606,127.0168992
754,영순이네,서울특별시 서대문구 거북골로 37,37.57926968,126.9237687
755,더히든바인,서울특별시 서초구 논현로 21,37.47286833,127.0491022
756,키보,서울특별시 용산구 한강대로50길 17,37.53173673,126.9719608
757,코후쿠행복,서울특별시 광진구 아차산로29길 24,37.5419008,127.0686514
758,비탈,서울특별시 용산구 소월로20길 6,37.54624962,126.9851603
759,문온더씨,서울특별시 강남구 삼성로82길 19,37.50542347,127.0592194
760,나루포차,서울특별시 강서구 마곡서1로 115-1,37.56669428,126.8185537
761,만남호프,서울특별시 송파구 중대로9길 45-6,37.49744058,127.118874
762,라비냐,서울특별시 구로구 디지털로32길 82,37.48303149,126.8995518
763,권셰프입니다,서울특별시 광진구 동일로24길 103,37.54237643,127.0706936
764,생활맥주,서울특별시 강서구 마곡중앙로 161-1,37.56785503,126.8274326
765,더티로즈클럽,서울특별시 용산구 이태원로20가길 11,37.53361008,126.9927766
766,꼴목,서울특별시 은평구 응암로13길 17,37.58910483,126.9154406
767,금호동SOOLJIP술집,서울특별시 성동구 금호로 40,37.54669773,127.0255205
768,노다지호프,서울특별시 노원구 한글비석로24길 10,37.66131221,127.0716045
769,술통,서울특별시 강북구 오패산로30길 13,37.613855,127.0346011
770,킹리,서울특별시 광진구 아차산로57길 10-1,37.53900016,127.0883764
771,케네디로즈,서울특별시 송파구 가락로 162,37.50322073,127.1134338
772,온더사이드에프앤비,서울특별시 중구 창경궁로5길 5,37.56710751,126.9976686
773,기람,서울특별시 강남구 도산대로90길 16,37.52354213,127.0489006
774,벨칸토컴퍼니,서울특별시 강남구 강남대로 588,37.51436266,127.0205115
775,와와,서울특별시 도봉구 마들로11길 73,37.6533031,127.0491179
776,이층에포차,서울특별시 동작구 사당로 248,37.48305467,126.9752627
777,바다,서울특별시 마포구 홍익로3길 11,37.55381846,126.9221316
778,시방,서울특별시 마포구 독막로24길 11,37.54670708,126.9328036
779,달팽이포차,서울특별시 강남구 압구정로50길 28,37.52663776,127.0372875
780,레드문,서울특별시 강북구 도봉로 284-1,37.63383996,127.0236472
781,짱노래주점,서울특별시 중구 수표로6길 27,37.56296732,126.9918608
782,호랑이라운지,서울특별시 마포구 월드컵로 103-1,37.55773631,126.9082217
783,초지일관홍대리,서울특별시 광진구 아차산로34길 7,37.53974643,127.0696852
784,더블유,서울특별시 양천구 오목로 337-2,37.52487198,126.8752137
785,처음처럼,서울특별시 강남구 논현로 333,37.49489274,127.0393914
786,삼이사에프앤비,서울특별시 종로구 삼일대로15길 26,37.56891833,126.98603
787,서울크래프트비어,서울특별시 마포구 토정로3안길 10,37.54592871,126.9146292
788,사당동6시,서울특별시 동작구 사당로16길 34,37.48221271,126.9727302
789,빙고,서울특별시 관악구 과천대로 953,37.47569089,126.9812649
790,설맥삼각지점,서울특별시 용산구 한강대로 205,37.53658097,126.9726071
791,아모르,서울특별시 양천구 신정중앙로23길 11,37.52729904,126.8633207
792,원하프,서울특별시 강남구 가로수길 19,37.51917672,127.0229826
793,프렌즈카페,서울특별시 강서구 금낭화로 135,37.57743604,126.8124178
794,이화웰빙마차,서울특별시 관악구 중앙1길 10,37.48370237,126.9535556
795,오샤레노래빠,서울특별시 강동구 구천면로24길 11,37.54016889,127.126168
796,비너스,서울특별시 송파구 가락로16길 2-3,37.50086614,127.1082704
797,가이토,서울특별시 강동구 고덕로38길 56,37.55207398,127.1424394
798,뮤직,서울특별시 강서구 월정로 106,37.52874957,126.839223
799,노네임211129,서울특별시 강북구 노해로 32,37.63833986,127.0230105
800,콘크리트,서울특별시 동작구 동작대로27나길 14,37.48694023,126.9807051
801,펀비어킹개봉3동점,서울특별시 구로구 개봉로11길 7-42,37.48708231,126.8555176
802,핑크스페이드,서울특별시 성동구 서울숲길 55,37.54818827,127.0436194
803,기찻길,서울특별시 마포구 광성로6길 26,37.54870642,126.9386938
804,뮤즈,서울특별시 강서구 공항대로46길 25-3,37.55419393,126.8529641
805,모던호,서울특별시 강남구 삼성로95길 24,37.50768622,127.0537166
806,짝태노가리호프,서울특별시 구로구 고척로52길 6,37.50471814,126.8557687
807,꼬치에꼬친닭,서울특별시 강서구 송정로 66,37.56064312,126.8099566
808,뉴욕노래주점,서울특별시 강북구 수유로 84,37.63608564,127.0228134
809,인사동노가리,서울특별시 종로구 인사동3길 14,37.57183736,126.9859905
810,블루,서울특별시 광진구 아차산로25길 15,37.54212869,127.0667022
811,붓두막,서울특별시 마포구 토정로3길 22,37.54649566,126.9145531
812,썬,서울특별시 영등포구 영중로10길 34-2,37.51847729,126.909122
813,블루문,서울특별시 노원구 동일로242가길 8,37.67627091,127.05591
814,바이젠펍,서울특별시 송파구 백제고분로22길 4,37.50355874,127.0891694
815,송빠,서울특별시 광진구 능동로 139,37.54329574,127.0718704
816,길목,서울특별시 강동구 천호대로162길 17,37.53605997,127.1285921
817,와치킨,서울특별시 구로구 남부순환로95길 8-5,37.49414358,126.8580108
818,땡자쏘맥,서울특별시 강남구 강남대로100길 13,37.50182985,127.0271558
819,와인몰트룸봉기,서울특별시 마포구 와우산로11길 9-3,37.54871261,126.9224654
820,목마호프,서울특별시 성북구 화랑로 1-3,37.60383505,127.0323523
821,길커피호프,서울특별시 강북구 도봉로13길 39,37.61509815,127.0279814
822,언주혼,서울특별시 강남구 논현로 613,37.50850892,127.0329168
823,마마,서울특별시 강남구 학동로38길 6,37.51453006,127.0342757
824,희릿,서울특별시 성동구 성수일로 21,37.54252534,127.0486595
825,하꾸야,서울특별시 서대문구 연세로9길 16,37.55861938,126.9358595
826,윈원,서울특별시 송파구 삼학사로 98,37.50600163,127.0975209
827,브롱스,서울특별시 강남구 강남대로94길 15,37.49964286,127.0285639
828,한남동포차,서울특별시 용산구 독서당로 53,37.53298993,127.0067923
829,화산공꼬치집,서울특별시 마포구 마포대로8길 9,37.54661674,126.9539216
830,목바,서울특별시 성북구 동소문로6길 4-3,37.58875641,127.0079653
831,브롱스,서울특별시 종로구 대학로11길 43,37.58246549,126.9992289
832,팔도회포차,서울특별시 용산구 원효로39길 19,37.5344338,126.9579048
833,Q라이브,서울특별시 송파구 위례성대로18길 31-5,37.50956182,127.1252015
834,보물섬,서울특별시 은평구 응암로13길 2,37.58998166,126.91673
835,쎄쎄쎄,서울특별시 마포구 월드컵북로44길 37,37.57633839,126.8951687
836,부킹노래짱,서울특별시 강동구 천호대로157길 49,37.53990021,127.1276082
837,신성,서울특별시 송파구 성내천로 263-1,37.4969517,127.1543115
838,부가네얼큰이,서울특별시 금천구 독산로50길 101,37.4624671,126.9099815
839,비어비어,서울특별시 강동구 명일로13길 18,37.53390883,127.1436997
840,쿠쥬,서울특별시 종로구 수표로22길 17,37.57128862,126.9902996
841,킹라이브,서울특별시 은평구 역말로 97,37.60814817,126.9198643
842,반창고,서울특별시 용산구 회나무로 20-1,37.53904777,126.9890712
843,추억의밤,서울특별시 구로구 구로동로 30,37.48439524,126.8864269
844,별과음악사이,서울특별시 광진구 긴고랑로 50,37.56232131,127.0816518
845,삼육오,서울특별시 강서구 화곡로 248,37.54712459,126.8459544
846,페르다우스,서울특별시 강남구 봉은사로43길 14,37.51020596,127.0399191
847,압구정봉구비어,서울특별시 양천구 목동중앙남로 72,37.54009077,126.8658196
848,온스,서울특별시 종로구 삼일대로28길 14,37.57340195,126.9887654
849,텅,서울특별시 종로구 율곡로 88,37.57680003,126.9889006
850,뚱이네포차,서울특별시 금천구 시흥대로52길 49,37.45340812,126.9018283
851,언플러그드,서울특별시 강남구 도곡로84길 6,37.49889969,127.0626036
852,썸,서울특별시 강남구 테헤란로78길 14-8,37.50527996,127.0547875
853,써니호프,서울특별시 동대문구 한천로14길 45,37.56696823,127.0652604
854,달밤포차,서울특별시 구로구 구로동로17길 7,37.48826566,126.8840853
855,커피마을,서울특별시 강북구 인수봉로 196-1,37.63718553,127.0131455
856,길가에음식정원,서울특별시 강북구 삼양로80나길 74,37.63398101,127.0210962
857,오늘호프,서울특별시 성북구 돌곶이로 156-1,37.61564913,127.0513986
858,사랑방,서울특별시 동작구 현충로 96-1,37.50788246,126.9643366
859,다인,서울특별시 중랑구 망우로 216-11,37.59357052,127.0771461
860,드루와,서울특별시 마포구 마포대로6길 10,37.54530357,126.9531704
861,미트비어,서울특별시 마포구 토정로 221,37.54498431,126.9356007
862,신세기호프,서울특별시 구로구 도림로 81,37.49024269,126.8921411
863,영,서울특별시 강서구 화곡로 319,37.55265169,126.8500339
864,료코이자카야,서울특별시 서초구 남부순환로356길 55,37.48254135,127.0385433
865,백스비어금천롯데,서울특별시 금천구 시흥대로 291,37.46054664,126.8972251
866,워싱턴,서울특별시 도봉구 도봉로 700,37.66688105,127.0434699
867,참전복,서울특별시 중랑구 봉우재로33길 20,37.59338979,127.0875095
868,업타운비즈강남포차강,서울특별시 강남구 역삼로1길 18,37.49442454,127.0306105
869,배꼽포차,서울특별시 강서구 초원로 47,37.56792306,126.8108143
870,비노델비노,서울특별시 강동구 천호대로 1089,37.53656154,127.1330784
871,봉황당,서울특별시 마포구 양화로23길 24,37.55951321,126.9251168
872,맛도깨비포차,서울특별시 강서구 강서로 381,37.55953632,126.8381457
873,솔,서울특별시 금천구 독산로 113,37.45743133,126.9052282
874,고래맥주창고,서울특별시 강동구 양재대로89길 27,37.52661143,127.1339742
875,거기,서울특별시 강남구 테헤란로28길 5,37.50076287,127.0388073
876,황금마차,서울특별시 강남구 도산대로46길 21,37.52083329,127.0370792
877,청량리블루스,서울특별시 동대문구 서울시립대로 164,37.58329315,127.054821
878,2020라이브빠,서울특별시 영등포구 신풍로 122,37.49971603,126.9197431
879,두루미,서울특별시 마포구 동교로51길 129-10,37.56615352,126.9201427
880,쓰리도어즈컴퍼니,서울특별시 중구 삼일대로12길 21,37.56694339,126.9889886
881,공중캠프,서울특별시 마포구 와우산로 150,37.55429408,126.9298434
882,한남동그집가로수길점,서울특별시 강남구 논현로175길 64,37.524247,127.0237536
883,레이디오고척스카이돔,서울특별시 구로구 경인로47길 101,37.50316402,126.8637206
884,투다리,서울특별시 영등포구 영신로19길 30-3,37.51352613,126.9047486
885,라운지,서울특별시 광진구 동일로22길 71,37.54150072,127.0681924
886,우미가라오케,서울특별시 용산구 녹사평대로26길 18,37.53065346,126.9915831
887,포시즌,서울특별시 송파구 올림픽로30길 6-5,37.51513396,127.1076143
888,대박노가리,서울특별시 마포구 도화길 50-10,37.54171911,126.9513308
889,역전할머니맥주,서울특별시 구로구 경인로47길 27,37.50055759,126.8662821
890,꿩먹고알먹고,서울특별시 마포구 망원로11길 6,37.5582512,126.9073879
891,영광노래광장,서울특별시 종로구 세종대로23길 54,37.57179056,126.9732783
892,명품,서울특별시 강서구 화곡로 340,37.55389244,126.8516106
893,"금빛,커피,호프",서울특별시 영등포구 디지털로37길 22-1,37.49061543,126.8982758
894,다소유,서울특별시 영등포구 영중로 97,37.52499999,126.9051353
895,다세대싸롱,서울특별시 용산구 이태원로55가길 15,37.53753101,127.0003616
896,천지댄스메들리,서울특별시 중구 충무로 22,37.5631591,126.9932165
897,금,서울특별시 구로구 경인로20나길 6,37.49519066,126.843384
898,뉴욕,서울특별시 송파구 송파대로28길 20,37.49413457,127.120202
899,원탁,서울특별시 강서구 화곡로55길 5,37.55218561,126.849362
900,진족발포차,서울특별시 용산구 보광로60길 10,37.53387882,126.9947078
901,구로더홀릭스타디움,서울특별시 금천구 남부순환로 1372,37.47949894,126.9033799
902,홍복포차,서울특별시 금천구 독산로11길 7,37.45194623,126.9054777
903,똥고집,서울특별시 종로구 대학로12길 92,37.58008822,127.0036649
904,물음표,서울특별시 강서구 화곡로58길 30,37.55269305,126.8524326
905,달별,서울특별시 광진구 군자로 93,37.55147936,127.070988
906,지리,서울특별시 마포구 월드컵로3길 31-5,37.55007647,126.9110382
907,싱싱노래바,서울특별시 관악구 신림로 167,37.4739983,126.9334313
908,동례포차,서울특별시 중랑구 면목로29길 49,37.57559474,127.0829379
909,역전주야식당,서울특별시 서대문구 수색로 26-2,37.56913848,126.9155037
910,사랑방,서울특별시 종로구 수표로22길 27,37.57146232,126.9905916
911,리치,서울특별시 강남구 삼성로95길 31,37.50718742,127.0533157
912,뚱배,서울특별시 광진구 긴고랑로 25,37.56352829,127.0792826
913,오렌지,서울특별시 종로구 삼일대로19길 17,37.56947188,126.9864867
914,옛날그집,서울특별시 용산구 우사단로 43,37.53411013,126.9954175
915,샤넬,서울특별시 양천구 목동로21길 2-1,37.52552501,126.8634268
916,테스형노래빠,서울특별시 중랑구 용마산로115길 4,37.59921615,127.0999747
917,잡솨포차,서울특별시 은평구 역말로 95,37.60801241,126.9197983
918,리꼬르도,서울특별시 송파구 석촌호수로12길 17-23,37.508075,127.0847599
919,쿠시일오이,서울특별시 강남구 삼성로104길 16,37.510985,127.0560842
920,수정,서울특별시 용산구 효창원로 116,37.53837227,126.9610749
921,자유인FreeMan,서울특별시 강동구 양재대로 1441,37.5346812,127.1383955
922,발리노래주점,서울특별시 강서구 공항대로46길 56,37.55368545,126.8516364
923,앗싸치킨,서울특별시 양천구 오목로 137,37.52464567,126.8526248
924,피치,서울특별시 강남구 도산대로 152,37.51814993,127.0252132
925,대림포차,서울특별시 영등포구 대림로 86,37.48989218,126.9047998
926,희나리서울,서울특별시 중구 퇴계로27길 53,37.56353754,126.991106
927,상구비어,서울특별시 노원구 한글비석로48길 9,37.66464561,127.0669838
928,와라우,서울특별시 중랑구 봉우재로33길 81,37.59573972,127.0896098
929,히야,서울특별시 송파구 충민로 5,37.4801187,127.1196202
930,벚꽃호프,서울특별시 마포구 새창로 16,37.54201043,126.9516662
931,씨에로,서울특별시 마포구 동교로 217,37.55948956,126.9235099
932,별난주점고대안암점,서울특별시 성북구 고려대로24길 5,37.58596185,127.0294813
933,온달꼼장어,서울특별시 광진구 아차산로65길 14,37.54101734,127.0940777
934,모꼬지다이닝,서울특별시 중랑구 용마산로115길 109,37.59744152,127.0941414
935,삼팔강땡,서울특별시 중랑구 동일로 911,37.61179889,127.0771814
936,역전할머니맥주사가정점,서울특별시 중랑구 사가정로51길 39,37.58259689,127.0877205
937,섭지수산,서울특별시 관악구 관악로14길 85,37.47824703,126.9571819
938,찐커피호프,서울특별시 구로구 구로동로 165-1,37.493356,126.8830709
939,낭만이가득한치킨호프,서울특별시 중랑구 면목로44길 79,37.58088933,127.0929721
940,비엔비,서울특별시 강서구 양천로 28,37.57224451,126.8068967
941,고따고로할꺼야,서울특별시 강북구 도봉로 45,37.61313683,127.0294341
942,황궁호프식당,서울특별시 금천구 시흥대로59길 16,37.453704,126.899733
943,서울펍,서울특별시 마포구 와우산로 73,37.55100611,126.9229982
944,골드너아펠,서울특별시 종로구 인사동16길 6,37.57501188,126.9842266
945,더블루,서울특별시 광진구 동일로24길 102,37.54222139,127.0704579
946,엠제이씨파트너스,서울특별시 영등포구 국제금융로2길 37,37.52293226,126.924273
947,세븐펍신림역점,서울특별시 관악구 남부순환로 1600-8,37.48360599,126.9287267
948,옛사랑,서울특별시 광진구 답십리로 376,37.57139832,127.082095
949,기네스하우스GUNESSHOUSE,서울특별시 강남구 테헤란로43길 18,37.50442759,127.0440422
950,후토,서울특별시 광진구 동일로24길 98,37.54232773,127.0702303
951,치킨친구수북한도시락,서울특별시 마포구 월드컵로 165,37.56221288,126.9041608
952,해피송,서울특별시 은평구 불광천길 486,37.59561306,126.9157424
953,꿈의대화,서울특별시 중랑구 동일로163길 21,37.61179975,127.0761393
954,오늘,서울특별시 강서구 방화대로7길 54,37.5561065,126.8130959
955,바비,서울특별시 관악구 신림로11길 9,37.4700477,126.938993
956,보헤미안PJ,서울특별시 서대문구 연세로7안길 25,37.55802059,126.9354039
957,안암꼬치,서울특별시 성북구 안암로 85,37.58362432,127.0301117
958,퍼스트인텐션,서울특별시 성북구 보문로30길 43-5,37.58939966,127.0191666
959,연:술집,서울특별시 마포구 연희로1길 36,37.56045573,126.9257145
960,정성찬,서울특별시 강북구 도봉로97길 27,37.64223658,127.0278885
961,미래노래바,서울특별시 은평구 통일로 724,37.61031599,126.9303436
962,클라이언트,서울특별시 영등포구 여의대방로65길 24,37.52043677,126.9292751
963,내고향소주리,서울특별시 강남구 선릉로86길 16-3,37.50317955,127.0512966
964,포도알,서울특별시 마포구 동교로 266-7,37.56308755,126.9258012
965,감성호프,서울특별시 성동구 왕십리로22길 6,37.56255742,127.0344484
966,뉴플로우,서울특별시 마포구 와우산로21길 19-12,37.55193076,126.9226228
967,사탕,서울특별시 강동구 천호대로177길 16,37.53509136,127.1378024
968,카시타,서울특별시 서대문구 연세로9길 34-1,37.55865514,126.934829
969,비어팩토리맥주공장,서울특별시 서초구 서초중앙로 138,37.49423264,127.0139553
970,금잔화,서울특별시 강북구 월계로7길 42,37.61201737,127.0335601
971,스웰,서울특별시 강북구 노해로 33,37.63863332,127.0225421
972,그로그,서울특별시 송파구 백제고분로48길 4-27,37.51053583,127.1132341
973,이태원맥주집,서울특별시 용산구 녹사평대로40길 55,37.53441402,126.9887943
974,골든벨노래바,서울특별시 관악구 남부순환로 1472,37.48142619,126.9140027
975,마포주점,서울특별시 강서구 양천로14길 16,37.57244698,126.8099952
976,니가사케,서울특별시 도봉구 방학로2길 11,37.66339908,127.0407604
977,홍시,서울특별시 영등포구 대림로 238,37.50198468,126.8971022
978,푸다기,서울특별시 관악구 낙성대로 13,37.47722187,126.9594573
979,어썸바,서울특별시 동대문구 장한로 122,37.57126971,127.0714102
980,포텐,서울특별시 관악구 남부순환로 1677,37.48469921,126.9370332
981,휘라이브,서울특별시 관악구 난곡로 234,37.47517358,126.9170213
982,풍전,서울특별시 구로구 구로동로26길 7,37.49056813,126.8845938
983,본가왕뼈감자탕문래역점,서울특별시 영등포구 당산로 34,37.51744978,126.8964787
984,추억공간,서울특별시 용산구 새창로35길 18,37.53637204,126.9621097
985,스크린호프,서울특별시 중랑구 중랑천로10길 22,37.59173698,127.0742812
986,별빛쏟아지는,서울특별시 강서구 송정로 61,37.56025437,126.809827
987,수정호프,서울특별시 구로구 남부순환로105라길 12,37.48030485,126.8893368
988,미미커피호프,서울특별시 구로구 구로동로 111-1,37.48857401,126.8842955
989,대박노래클럽,서울특별시 강서구 마곡중앙6로 89,37.56015848,126.8372758
990,99해산물포차,서울특별시 노원구 한글비석로15길 51,37.65537317,127.0737411
991,꼬치장인장선생,서울특별시 성북구 종암로24가길 20,37.60068492,127.036085
992,추카추카,서울특별시 강남구 도산대로 159,37.5191371,127.0258225
993,술시,서울특별시 중랑구 용마산로117길 24,37.60038058,127.099066
994,더카스광장,서울특별시 종로구 돈화문로5길 24,37.57077828,126.9906801
995,김봉남포장마차사당역,서울특별시 동작구 사당로30길 115,37.47974185,126.9808255
996,식스컵스이모네포차,서울특별시 강서구 방화동로 48-1,37.56476118,126.8117814
997,민들레단란주점,서울특별시 강북구 오패산로77길 6,37.63726629,127.0261177
998,김김포차,서울특별시 종로구 창신3길 3-5,37.57337264,127.0108298
999,요리명가,서울특별시 서초구 법원로4길 31,37.49498315,127.0121134
1000,심야포차,서울특별시 마포구 어울마당로 58-1,37.55027019,126.9213452
1001,육일봉,서울특별시 중구 을지로16길 20,37.56549398,126.9933549
1002,팔월팔일,서울특별시 강동구 진황도로 10,37.53989705,127.1284003
1003,칼포니치킨호프사근점,서울특별시 성동구 사근동길 43,37.56099104,127.0457082
1004,뉴비어,서울특별시 성동구 용답중앙15길 1,37.56392269,127.0528246
1005,봉구비어,서울특별시 구로구 구일로10길 27,37.49613035,126.8725463
1006,오늘도골뱅이,서울특별시 양천구 지양로 6,37.51734974,126.8381327
1007,춤추는왕만두,서울특별시 도봉구 노해로63다길 34,37.65525183,127.0460784
1008,시골밥상&포차,서울특별시 동대문구 휘경로 32,37.59484962,127.0633717
1009,코코,서울특별시 종로구 새문안로3길 36,37.57337649,126.9732905
1010,타코야키와맥주,서울특별시 중랑구 동일로96길 44,37.58465506,127.0823965
1011,꿀단지,서울특별시 영등포구 신길로 108,37.5021718,126.9124242
1012,바랜,서울특별시 중구 충무로 10-1,37.56219558,126.993286
1013,노우노우바운즈,서울특별시 성동구 왕십리로4길 19-1,37.54657795,127.0461636
1014,루이스,서울특별시 강남구 테헤란로 421,37.50598261,127.0525166
1015,에스코트7080,서울특별시 영등포구 여의대방로69길 7,37.51975177,126.9312419
1016,불불,서울특별시 금천구 범안로 1240,37.46630778,126.8995257
1017,대서양,서울특별시 은평구 응암로21길 1,37.59377474,126.9176828
1018,제이케이운명같은여인,서울특별시 중랑구 동일로 791,37.60110148,127.0792274
1019,호프야,서울특별시 중랑구 용마산로118길 19,37.6008951,127.1015513
1020,영호프,서울특별시 영등포구 도림로31길 22,37.49428059,126.8951574
1021,난곡맥주,서울특별시 관악구 난곡로 89-1,37.46330456,126.9187525
1022,카사블랑코,서울특별시 마포구 양화로1길 29,37.54998849,126.9102925
1023,술술,서울특별시 동대문구 왕산로 222-1,37.58152082,127.0473144
1024,봉봉,서울특별시 서대문구 통일로9안길 36-1,37.56574791,126.9654037
1025,딸기호프,서울특별시 구로구 구로동로 112-3,37.48872274,126.8847796
1026,박군포차,서울특별시 성북구 고려대로26길 34,37.5846944,127.0298488
1027,코코펜션기쁨앤미소,서울특별시 은평구 진흥로 154,37.60868919,126.9268219
1028,펀비어킹,서울특별시 금천구 시흥대로58길 13,37.45381669,126.9021614
1029,글렌모어,서울특별시 은평구 통일로 863-8,37.61981465,126.9196616
1030,주상낙원,서울특별시 강서구 강서로 243-7,37.547412,126.835765
1031,잘란연남,서울특별시 마포구 성미산로28길 41,37.56223953,126.9237081
1032,멜론주점,서울특별시 송파구 백제고분로7길 29,37.51089305,127.0821465
1033,명품,서울특별시 서초구 효령로31길 19,37.48202627,126.9961152
1034,노가리학교,서울특별시 서초구 서초중앙로20길 24,37.49223529,127.0153951
1035,대박호프,서울특별시 중랑구 면목로 400,37.58766213,127.0878965
1036,한강썸라이브,서울특별시 성동구 금호로 86,37.55115986,127.0257567
1037,강남오뎅,서울특별시 강남구 역삼로4길 16,37.49239959,127.032005
1038,오빠오빠,서울특별시 송파구 송파대로28길 6,37.49349495,127.1190108
1039,해바라기,서울특별시 은평구 통일로89길 5-9,37.62418115,126.9192812
1040,싸우나뮤직바,서울특별시 강남구 도산대로87길 11,37.52540548,127.0497933
1041,피아노,서울특별시 송파구 오금로13길 6,37.51307678,127.1084419
1042,왕과비,서울특별시 은평구 응암로 193,37.58925203,126.9167519
1043,노가리호프2,서울특별시 마포구 만리재로 23,37.54479495,126.953732
1044,아우라원,서울특별시 마포구 와우산로21길 37,37.55227385,126.9217124
1045,아노락,서울특별시 강남구 도산대로57길 7,37.52409167,127.0410875
1046,프로젝트큐큐큐,서울특별시 종로구 삼일대로32가길 12-4,37.57477873,126.9885544
1047,대박포차,서울특별시 영등포구 대방천로 245,37.49886285,126.9180816
1048,징크,서울특별시 은평구 연서로27길 16-14,37.61863961,126.918274
1049,비비즈,서울특별시 노원구 노해로83길 4,37.65552552,127.0645026
1050,까를로스,서울특별시 용산구 이태원로 143-11,37.5345539,126.9893468
1051,이자카야'오모',서울특별시 송파구 올림픽로32길 52,37.5123717,127.1117306
1052,마르셀,서울특별시 영등포구 여의대로 8,37.52120417,126.9185623
1053,스칼렛호프,서울특별시 양천구 월정로 7,37.52066706,126.8437941
1054,술단지,서울특별시 강남구 강남대로152길 21,37.51764701,127.0210568
1055,만사형통,서울특별시 중구 을지로 114-3,37.56605649,126.9906419
1056,꼭지호프,서울특별시 구로구 구로동로 119-2,37.48928424,126.8841267
1057,글리머,서울특별시 성동구 성수일로6길 47,37.54429003,127.0552231
1058,이모포차,서울특별시 관악구 봉천로12길 34,37.48716397,126.9295918
1059,소나무,서울특별시 강남구 논현로63길 7,37.49316491,127.0396623
1060,자유인,서울특별시 송파구 송파대로28길 35,37.49538727,127.1214426
1061,마곡관,서울특별시 강서구 마곡중앙로 161-8,37.56861933,126.8272734
1062,신촌아지트,서울특별시 서대문구 연세로4길 42-3,37.55790044,126.9390727
1063,장독대,서울특별시 종로구 비봉5길 30-3,37.61408445,126.9526827
1064,화양슈퍼,서울특별시 광진구 동일로22길 50,37.5416982,127.0669565
1065,보물섬,서울특별시 금천구 범안로 1252,37.4663204,126.900882
1066,에이스,서울특별시 송파구 동남로18길 32,37.49359191,127.1333378
1067,토리,서울특별시 은평구 응암로11길 15,37.58874009,126.9149703
1068,모고,서울특별시 은평구 응암로9길 6-13,37.58808247,126.9159649
1069,블루먼데이,서울특별시 마포구 양화로6길 57-13,37.54924594,126.9177272
1070,더블유,서울특별시 영등포구 여의대방로69길 7,37.51975177,126.9312419
1071,슈가,서울특별시 강서구 화곡로58길 33,37.55286708,126.8527241
1072,비어링,서울특별시 성북구 동소문로6길 4-13,37.58856351,127.0075263
1073,연호프,서울특별시 구로구 구로동로20길 24-14,37.48818913,126.8855225
1074,봉쥬르와인살롱,서울특별시 송파구 오금로13길 13,37.51355041,127.109115
1075,이지더즈잇,서울특별시 성동구 연무장길 45,37.54285936,127.0543472
1076,물방아커피호프,서울특별시 영등포구 대림로29길 37-2,37.49408821,126.8957822
1077,라벤더,서울특별시 영등포구 국제금융로6길 30,37.52170988,126.9265871
1078,올레,서울특별시 영등포구 영등포로 370,37.51384682,126.9190191
1079,올드크래프트하우스,서울특별시 동대문구 휘경로 5,37.59636072,127.0607708
1080,게락,서울특별시 서초구 방배중앙로 169,37.49407672,126.9859571
1081,에스,서울특별시 동대문구 사가정로 221,37.57891493,127.0696736
1082,영구비어,서울특별시 종로구 삼일대로17길 36,37.56927345,126.9854139
1083,열정도감자집,서울특별시 용산구 백범로87길 53,37.53962517,126.9693518
1084,블랙아웃,서울특별시 서대문구 명지대2길 12,37.58163469,126.9252291
1085,배터리88,서울특별시 마포구 와우산로19길 6,37.5513553,126.9227555
1086,포시즌실내마차,서울특별시 영등포구 영신로19길 5-4,37.51411686,126.9072399
1087,작은도가,서울특별시 성북구 성북로 5-9,37.58861642,127.0052497
1088,역전할머니맥주,서울특별시 은평구 서오릉로 6,37.60211437,126.9271202
1089,호수호프커피,서울특별시 양천구 지양로 93,37.52317981,126.8317749
1090,팔월,서울특별시 강동구 진황도로 10,37.53989705,127.1284003
1091,나무,서울특별시 강남구 압구정로 444,37.52621836,127.0455631
1092,미술관,서울특별시 영등포구 영등포로46길 4,37.5189591,126.9076331
1093,신사숙녀,서울특별시 강남구 강남대로152길 13,37.51737194,127.0204835
1094,빅토리노래바,서울특별시 강서구 곰달래로16길 32,37.52869563,126.8401516
1095,쇼팽,서울특별시 구로구 구로동로 120,37.48932401,126.8845218
1096,네코도리,서울특별시 강서구 화곡로42길 32,37.54597282,126.8470358
1097,송희,서울특별시 은평구 은평로13길 11-3,37.60207966,126.9252861
1098,퀸노래광장,서울특별시 강서구 강서로5나길 94,37.52852528,126.8429939
1099,초코렛,서울특별시 영등포구 여의대방로69길 7,37.51975177,126.9312419
1100,놀,서울특별시 용산구 한강대로21길 17-7,37.52653892,126.9638524
1101,메신저,서울특별시 강남구 선릉로100길 56,37.5066892,127.0518629
1102,고ㄷ도르,서울특별시 송파구 송파대로49길 50,37.50626806,127.0993726
1103,써니호프,서울특별시 중랑구 면목로 402,37.58783375,127.087951
1104,7080너랑나랑,서울특별시 중랑구 중랑역로 274,37.6161976,127.0785429
1105,쥬리아,서울특별시 강동구 성안로 41,37.527513,127.130366
1106,나야미,서울특별시 마포구 양화로6길 57-24,37.54947511,126.918154
1107,한신포차,서울특별시 강동구 진황도로 93,37.53619345,127.1369524
1108,주빌리호프,서울특별시 중랑구 동일로157길 14,37.60995061,127.0770343
1109,도쿄쌀롱,서울특별시 중구 중림로 10,37.55891734,126.9642984
1110,에메랄드위스키,서울특별시 강서구 마곡동로4길 15,37.55980495,126.8352327
1111,샤넬노래바,서울특별시 강서구 강서로 17,37.52940935,126.8477095
1112,칠성커피호프,서울특별시 중랑구 망우로 268,37.59526915,127.0823681
1113,닭치고포차,서울특별시 종로구 종로57길 26,37.57445611,127.0164872
1114,달빛아래,서울특별시 도봉구 도봉로169나길 43,37.67775029,127.0438179
1115,피아노바,서울특별시 도봉구 마들로11길 73,37.6533031,127.0491179
1116,프렌드호프,서울특별시 도봉구 도봉로155길 8,37.67292734,127.043517
1117,심야별장,서울특별시 서대문구 통일로 489,37.59168786,126.9409146
1118,예스,서울특별시 강서구 양천로16길 11,37.57279137,126.8110878
1119,보스,서울특별시 중구 퇴계로42길 5,37.56145974,126.9968161
1120,푸른굴뚝,서울특별시 마포구 신촌로14길 12,37.55558977,126.9336276
1121,화이트야드,서울특별시 강남구 압구정로50길 27,37.52648011,127.0378439
1122,청춘퓨전포차,서울특별시 성북구 고려대로26길 42-1,37.5842444,127.0299112
1123,공주포차,서울특별시 강동구 진황도로 211,37.5272495,127.1448733
1124,수지상회,서울특별시 성동구 마조로 25,37.560033,127.0408987
1125,아지트,서울특별시 송파구 오금로15길 12,37.51264435,127.1096461
1126,소문난영양돌솥밥.아구샤부샤브,서울특별시 동작구 서달로15길 7,37.50811905,126.9625462
1127,연남족발1987,서울특별시 마포구 동교로 222,37.55979109,126.9239697
1128,위한맥주,서울특별시 종로구 종로39길 33,37.57225172,127.0050372
1129,삼미리,서울특별시 강남구 논현로87길 41,37.49882739,127.0335054
1130,추억나누기,서울특별시 강동구 구천면로 344-1,37.54965706,127.1372046
1131,해물포차꼴통,서울특별시 동작구 장승배기로16길 162,37.51059735,126.9442897
1132,더에비뉴,서울특별시 강남구 봉은사로 411,37.51089582,127.044989
1133,라라,서울특별시 영등포구 국회대로62길 23,37.52654695,126.9175348
1134,모찌,서울특별시 관악구 장군봉1길 56,37.48140168,126.9430951
1135,쿨노래바,서울특별시 강서구 강서로5나길 62,37.52861452,126.8447462
1136,비키초키크로키,서울특별시 은평구 가좌로9길 25-1,37.58914764,126.9142171
1137,왕커피호프,서울특별시 구로구 구로동로29길 3,37.49100973,126.8836487
1138,애모,서울특별시 노원구 상계로18길 18,37.65736533,127.0692736
1139,쉬리,서울특별시 광진구 광나루로 529,37.54513688,127.0884488
1140,느린마을양조장,서울특별시 광진구 아차산로 235,37.54060109,127.0695162
1141,레인보우,서울특별시 강서구 공항대로81길 9,37.54759844,126.8764
1142,뻐꾸기,서울특별시 동작구 만양로 79,37.51050108,126.9446078
1143,만월,서울특별시 영등포구 여의동로 213,37.51852056,126.9395966
1144,마꽁이네와인샵,서울특별시 영등포구 국제금융로 86,37.52019814,126.9317785
1145,역전할머니맥주,서울특별시 종로구 대명1길 10,37.58310027,127.0007716
1146,역전할머니맥주서울송정역점,서울특별시 강서구 송정로 53,37.55965135,126.8098932
1147,게러지브로스,서울특별시 은평구 응암로11길 5,37.58829879,126.9159731
1148,비바체,서울특별시 강북구 도봉로 347,37.63877912,127.0260073
1149,새천년,서울특별시 송파구 송파대로28길 12,37.4937234,127.1194379
1150,내가사는세상,서울특별시 종로구 창경궁로 130-1,37.57409085,126.9976995
1151,신사호프,서울특별시 서초구 주흥16길 22,37.50956291,127.0197711
1152,퓨전,서울특별시 용산구 녹사평대로26길 24,37.53093353,126.9916698
1153,또바기포차,서울특별시 강남구 일원로9길 17,37.4898508,127.0829808
1154,서울호프커피,서울특별시 관악구 남부순환로 1726,37.48207476,126.9417853
1155,놀러와,서울특별시 마포구 큰우물로 76,37.54086012,126.9459339
1156,오비베어연남점,서울특별시 마포구 동교로 238-1,37.56113841,126.9244936
1157,아리네술상,서울특별시 강남구 논현로94길 11,37.5025428,127.0371898
1158,비어링(세계맥,서울특별시 서초구 강남대로 212,37.48309742,127.0360147
1159,워커힐,서울특별시 동작구 동작대로27가길 46-3,37.48543643,126.980816
1160,경성술집,서울특별시 강동구 양재대로111길 15,37.53698002,127.1385501
1161,에이,서울특별시 강남구 논현로94길 30,37.50282589,127.0387582
1162,사브레sable,서울특별시 송파구 송파대로46길 28,37.50914925,127.1073914
1163,위너스,서울특별시 강동구 진황도로 153,37.53234419,127.1416584
1164,미스터칠드런,서울특별시 강남구 도산대로55길 43,37.52649557,127.0408531
1165,들개,서울특별시 동대문구 경희대로1길 13,37.59168098,127.0513406
1166,행님아,서울특별시 송파구 마천로 138,37.50453206,127.1347382
1167,까망까레,서울특별시 동작구 동작대로3길 25,37.47831985,126.9799742
1168,프라하,서울특별시 강남구 도산대로56길 3,37.52289569,127.0402769
1169,오두리숯불바베큐,서울특별시 도봉구 덕릉로60길 19,37.63939989,127.0401852
1170,오프오디너리플레져,서울특별시 서초구 사평대로55길 94,37.50809679,127.0211702
1171,막둥이실내포차,서울특별시 종로구 난계로29길 18,37.57446766,127.0222154
1172,홍대한신포차,서울특별시 마포구 잔다리로 13,37.55056097,126.9216126
1173,뮤즈라이브,서울특별시 동대문구 장한로23길 11-11,37.57021016,127.0695895
1174,빨대,서울특별시 금천구 디지털로 206,37.47866485,126.8893272
1175,혼술집려,서울특별시 구로구 공원로6나길 11-1,37.50377852,126.8904482
1176,신꼬끼오,서울특별시 동대문구 전농로19길 5,37.57841546,127.0566941
1177,정,서울특별시 관악구 신림로 224,37.47756853,126.9366594
1178,무쏘,서울특별시 용산구 이태원로 234-1,37.53578615,126.9996721
1179,호프카톡,서울특별시 성동구 성덕정길 57,37.5382549,127.0498453
1180,우리,서울특별시 중랑구 봉우재로 127,37.59299896,127.0870727
1181,삼삼한청춘,서울특별시 양천구 공항대로 550,37.54973882,126.8665448
1182,슈가,서울특별시 마포구 도화길 43,37.54178144,126.9502323
1183,오리지널스,서울특별시 용산구 한강대로 205,37.53658097,126.9726071
1184,자이노래빠,서울특별시 관악구 난곡로66길 14,37.48250961,126.9152194
1185,디제이노래주점,서울특별시 동작구 노량진로8길 27,37.51270277,126.936919
1186,소주랑맥주랑,서울특별시 중랑구 용마산로118길 13,37.60085776,127.1013819
1187,치킨사냥마곡역점,서울특별시 강서구 마곡중앙6로 16,37.56039191,126.828987
1188,여수포차,서울특별시 동대문구 휘경로11가길 4-4,37.59593364,127.0637204
1189,궁노래주점,서울특별시 강서구 강서로5나길 104,37.52855522,126.8423712
1190,흑진주호프,서울특별시 구로구 구로동로15길 10,37.48792449,126.8842147
1191,놀이터,서울특별시 강서구 화곡로 326,37.5527942,126.85079
1192,금촌빈대떡,서울특별시 강북구 오패산로67길 47,37.63556654,127.0254148
1193,다호,서울특별시 광진구 면목로 82,37.56095631,127.0787709
1194,영플레이스,서울특별시 광진구 동일로22길 81,37.54143319,127.0687703
1195,맹순이포차,서울특별시 서대문구 증가로 115,37.57686213,126.9245618
1196,이김파트너스,서울특별시 강남구 봉은사로1길 6,37.50524702,127.0252339
1197,라케이브래빗,서울특별시 마포구 동교로29길 10,37.56109691,126.9238943
1198,가보자,서울특별시 마포구 월드컵로1길 11,37.54945719,126.9122807
1199,연탄불생고기,서울특별시 강서구 공항대로4길 14,37.56063194,126.8106359
1200,인생건어물,서울특별시 구로구 새말로 102,37.50576967,126.8913914
1201,블랙,서울특별시 강동구 양재대로89가길 34,37.52509919,127.134184
1202,피지엠,서울특별시 강남구 논현로20길 16,37.47812476,127.0461525
1203,짝태노가리,서울특별시 영등포구 의사당대로 38,37.52601676,126.9186738
1204,천년동안도,서울특별시 종로구 삼일대로26길 6,37.57307577,126.9885548
1205,야래향,서울특별시 영등포구 디지털로37길 9-2,37.48956314,126.8984835
1206,나라,서울특별시 강남구 테헤란로38길 11,37.50129148,127.0417637
1207,신도림역포장마차,서울특별시 구로구 새말로18길 20-9,37.50547206,126.8923232
1208,불독,서울특별시 강남구 봉은사로2길 15,37.5036309,127.0259335
1209,나들목포차,서울특별시 강동구 천호대로188길 18,37.53327478,127.1432431
1210,광장호프,서울특별시 강북구 솔샘로64길 39,37.61567022,127.0285176
1211,더블린446,서울특별시 영등포구 여의대방로67길 18,37.52035642,126.9303509
1212,피아노,서울특별시 송파구 백제고분로7길 8-8,37.51006282,127.0796682
1213,스위트룸,서울특별시 강남구 언주로174길 11,37.52851847,127.0347742
1214,을지로움,서울특별시 중구 수표로 30-2,37.56388214,126.990309
1215,상도실내포장마차,서울특별시 동작구 상도로 284,37.5020006,126.9482448
1216,방추,서울특별시 강남구 논현로175길 25,37.52543314,127.0266344
1217,룰루랄라노래밤,서울특별시 강남구 선릉로91길 18,37.50479527,127.0471705
1218,부엌에서,서울특별시 은평구 통일로83길 17-11,37.62042961,126.9179422
1219,중앙호프,서울특별시 도봉구 노해로65길 17,37.65205312,127.046074
1220,믈랑,서울특별시 관악구 호암로24길 11,37.47001083,126.933895
1221,호프존,서울특별시 종로구 종로16길 12,37.56954312,126.9884893
1222,경성야시장,서울특별시 강남구 강남대로98길 16,37.50072819,127.0279617
1223,이층술집,서울특별시 중랑구 봉우재로33길 86,37.59554369,127.0898952
1224,봉구비어,서울특별시 중랑구 봉우재로43길 33,37.59480972,127.0893606
1225,비타민,서울특별시 광진구 광나루로 341,37.54849959,127.0679016
1226,맨프롬오키나와,서울특별시 송파구 백제고분로45길 24-18,37.5107777,127.1094533
1227,노래하는개구리7089라이브,서울특별시 강서구 공항대로46길 47,37.55390673,126.8521536
1228,오술차,서울특별시 관악구 남부순환로 1594-8,37.48347392,126.9280728
1229,진아호프,서울특별시 금천구 가산로 130,37.47719606,126.892198
1230,투다리삼전,서울특별시 송파구 백제고분로22길 4,37.50355874,127.0891694
1231,유성,서울특별시 관악구 관악로 196,37.48236187,126.9537891
1232,씨티보이삼각지,서울특별시 용산구 한강대로 162-2,37.53330683,126.9722221
1233,웰빙,서울특별시 중구 을지로 109,37.56646628,126.990093
1234,한신포차,서울특별시 노원구 섬밭로 17,37.61841955,127.0723306
1235,1987루프탑레스토랑,서울특별시 종로구 종로12길 23,37.56894419,126.9858938
1236,짱호프,서울특별시 구로구 구로중앙로 29,37.49250007,126.8907281
1237,오케이주점,서울특별시 서초구 강남대로 222-6,37.4838158,127.0357115
1238,지그재그호프,서울특별시 중랑구 사가정로 399,37.58076111,127.0891921
1239,늪,서울특별시 동대문구 고미술로 100,37.56385063,127.0573306
1240,클래스,서울특별시 관악구 남부순환로176길 11,37.48344229,126.9285595
1241,원더러스,서울특별시 용산구 이태원로26길 28,37.53326478,126.993494
1242,커튼콜,서울특별시 용산구 청파로93길 46,37.55385383,126.9663943
1243,막걸리집,서울특별시 성북구 고려대로26길 14,37.58552309,127.0298154
1244,이삭,서울특별시 성북구 장위로 96,37.61365241,127.047369
1245,드래곤,서울특별시 강남구 언주로108길 15,37.50852557,127.0404836
1246,트리타카페펍,서울특별시 강동구 진황도로 152,37.53251258,127.1412717
1247,더니지,서울특별시 강서구 공항대로 237,37.55944031,126.8338914
1248,히포포차,서울특별시 마포구 독막로9길 43,37.55014532,126.9204982
1249,가정식맛집,서울특별시 강북구 삼양로 205,37.62211349,127.0199038
1250,슬램덩크,서울특별시 은평구 은평로8길 8-1,37.59955843,126.9205321
1251,건달맥주,서울특별시 동작구 만양로14길 5,37.51140303,126.9447082
1252,역전포차,서울특별시 영등포구 선유서로 103,37.524883,126.8858819
1253,경복너랑나랑호프,서울특별시 마포구 양화로3길 15,37.54963888,126.9114633
1254,레오,서울특별시 강남구 언주로107길 30,37.50745808,127.0366403
1255,샤방샤방노래방,서울특별시 영등포구 영중로10길 34-1,37.51849447,126.9090312
1256,익선동코다리맛집,서울특별시 종로구 돈화문로11나길 59,37.57507576,126.9895692
1257,도봉산팔뚝집,서울특별시 도봉구 도봉로181길 70,37.68510045,127.042431
1258,케이투,서울특별시 영등포구 선유동1로 3,37.5225101,126.8912908
1259,벤투,서울특별시 영등포구 국회대로72길 17,37.52954536,126.9212477
1260,2%포차,서울특별시 금천구 독산로 73,37.45389653,126.9059126
1261,밤새우리,서울특별시 관악구 신림로 339,37.48454799,126.9292673
1262,쭈꾸미도사석계역점,서울특별시 성북구 한천로78길 53,37.61282628,127.0646187
1263,민들레처럼,서울특별시 종로구 동숭길 98,37.58257173,127.0043338
1264,현커피호프,서울특별시 금천구 금하로 679,37.45258893,126.9057961
1265,화실,서울특별시 마포구 연희로1길 59-3,37.56152458,126.926333
1266,렌더,서울특별시 성동구 마조로5길 4,37.56011133,127.0405581
1267,사운드마인드,서울특별시 관악구 낙성대로 14,37.47726945,126.9587218
1268,허밍,서울특별시 서초구 강남대로101길 20,37.51689545,127.0184422
1269,오와리,서울특별시 성동구 왕십리로10길 17,37.54666196,127.0465247
1270,콰이,서울특별시 성동구 마조로3가길 25,37.55964733,127.0400095
1271,일호점펍,서울특별시 동작구 만양로 47-1,37.50834992,126.9468889
1272,리킨치킨&호프,서울특별시 중랑구 중랑역로 258,37.61561787,127.0769982
1273,아페로,서울특별시 종로구 필운대로3길 1,37.57863559,126.9688143
1274,우주포차,서울특별시 광진구 긴고랑로 18-1,37.56341373,127.0784577
1275,한남타츠,서울특별시 용산구 한남대로20길 37,37.53503569,127.0089829
1276,울집비어,서울특별시 강서구 가로공원로76길 43,37.53524093,126.8377873
1277,뮤즈노래바,서울특별시 광진구 자양로 112,37.53766607,127.0836515
1278,잼세이션,서울특별시 서대문구 홍은중앙로 98-1,37.59918698,126.9482485
1279,닭발여행x윤이불닭발,서울특별시 강남구 강남대로96길 16,37.49982073,127.0282789
1280,오동나무,서울특별시 구로구 경인로 179,37.49516059,126.8412359
1281,문래문화살롱,서울특별시 영등포구 도림로137길 4,37.51422729,126.8939358
1282,역전할머니맥주,서울특별시 광진구 아차산로25길 13,37.54202004,127.0666356
1283,준코,서울특별시 강동구 천호대로 1135,37.5346226,127.1377739
1284,노즈,서울특별시 송파구 오금로17길 4-7,37.51111968,127.1117907
1285,돈쥬앙호프,서울특별시 강동구 천호대로 985-11,37.53985306,127.1224601
1286,밝히는주,서울특별시 용산구 신흥로26길 20,37.54509413,126.9838632
1287,송향,서울특별시 중랑구 용마산로94길 27,37.58895864,127.0983205
1288,연포차,서울특별시 금천구 금하로 637,37.45479702,126.9019662
1289,타일러,서울특별시 동대문구 하정로 46,37.57512785,127.0268709
1290,금별맥주,서울특별시 송파구 법원로 114,37.48604895,127.1209979
1291,7080노래빠,서울특별시 중랑구 중랑역로 209,37.61211056,127.0755578
1292,영희호프,서울특별시 구로구 구로동로15길 6,37.48786313,126.8843966
1293,정술,서울특별시 강북구 노해로 57,37.64074799,127.0222084
1294,스위트밀비어드파파왕십리민자역사점,서울특별시 성동구 왕십리광장로 17,37.56143616,127.0383792
1295,어반써클,서울특별시 노원구 노해로79길 6-19,37.65547284,127.0624067
1296,필링,서울특별시 강서구 초원로 44,37.56765668,126.8103091
1297,크래프트한스신,서울특별시 성동구 금호로 140,37.55371406,127.0219094
1298,황실,서울특별시 양천구 가로공원로 128,37.53588602,126.8301171
1299,디노노가리술집,서울특별시 광진구 아차산로25길 18,37.5421394,127.066917
1300,빈대주막,서울특별시 노원구 석계로1길 10,37.61562438,127.0640966
1301,해피데이,서울특별시 서대문구 통일로 157,37.56807931,126.9641149
1302,홀리데이,서울특별시 금천구 가산로 153,37.47871733,126.8901178
1303,상수동블루스,서울특별시 마포구 와우산로3길 6,37.5462534,126.9225347
1304,키ki,서울특별시 성동구 연무장길 41-9,37.54312648,127.0539478
1305,길커피호프,서울특별시 금천구 독산로 305,37.47399133,126.9031439
1306,주랑커피호프,서울특별시 영등포구 도신로 193,37.51143706,126.912697
1307,애플,서울특별시 강북구 도봉로8길 61,37.61140092,127.0331037
1308,노가리집,서울특별시 중구 을지로20길 16,37.56567216,126.9952315
1309,여인,서울특별시 노원구 한글비석로23길 16,37.66017318,127.0711313
1310,유니,서울특별시 송파구 오금로27길 12,37.50737564,127.1208045
1311,써니7090,서울특별시 강서구 방화동로 61,37.56599083,126.8122033
1312,포차천국영등포,서울특별시 영등포구 국회대로34길 16-1,37.52604314,126.8971667
1313,모모하나,서울특별시 금천구 가산디지털1로 171,37.48075456,126.880658
1314,폭스,서울특별시 강북구 월계로3길 5,37.61008731,127.0311386
1315,관광메들리,서울특별시 강서구 화곡로 119,37.54043137,126.8350928
1316,산,서울특별시 동대문구 약령시로 123,37.58322089,127.043613
1317,텍사스라이스,서울특별시 강남구 테헤란로55길 24,37.50595587,127.0469521
1318,홀리데이서울,서울특별시 강남구 선릉로155길 28,37.52581881,127.0374111
1319,봄,서울특별시 종로구 세종대로23길 11,37.5715329,126.9757723
1320,모로미종각역,서울특별시 종로구 삼봉로 94,37.57183195,126.9822208
1321,오패산포차,서울특별시 강북구 오패산로 382,37.63539365,127.0284875
1322,아지트셰프포차,서울특별시 금천구 가산디지털2로 142-6,37.48036245,126.8792167
1323,에스티포차,서울특별시 광진구 동일로26길 8,37.54536983,127.0663675
1324,비스크,서울특별시 광진구 능동로 372,37.56235617,127.0826588
1325,테라핀,서울특별시 종로구 종로16길 32-3,37.56862407,126.9884904
1326,상수포차,서울특별시 마포구 와우산로 30,37.5471511,126.9231555
1327,탑,서울특별시 성동구 용답중앙15길 8-1,37.56416247,127.053512
1328,애프터저크오프,서울특별시 중구 수표로 42-21,37.5650366,126.9904406
1329,강남호프,서울특별시 강남구 자곡로3길 21,37.47154463,127.0880771
1330,비어플라주,서울특별시 강남구 봉은사로 447,37.51192509,127.0485956
1331,테마노래빠,서울특별시 강서구 강서로 21,37.52986693,126.8475101
1332,에스,서울특별시 송파구 송파대로28길 32,37.49472829,127.1212807
1333,공간식당,서울특별시 광진구 아차산로31길 20-3,37.5418652,127.0698513
1334,박씨물고온제비,서울특별시 영등포구 영등포로50길 8-3,37.51820691,126.9091146
1335,이지지점,서울특별시 강서구 화곡로 327,37.55328694,126.8504995
1336,샴푸퓨전노래밤,서울특별시 서대문구 연세로 10,37.55635965,126.9370687
1337,야간열차,서울특별시 중랑구 중랑역로 196-1,37.61101547,127.0760924
1338,엠,서울특별시 구로구 구로동로 111-1,37.48857401,126.8842955
1339,어텀,서울특별시 강남구 삼성로96길 15,37.50908255,127.0570583
1340,욜로펍비어,서울특별시 성북구 종암로25길 3,37.60074759,127.032732
1341,영커피호프,서울특별시 중랑구 중랑역로 85,37.60101711,127.0776543
1342,내가찾던그집,서울특별시 금천구 독산로51길 5,37.46273246,126.9036023
1343,로데오뎅,서울특별시 강남구 압구정로50길 28,37.52663776,127.0372875
1344,나루터민속포차,서울특별시 송파구 삼학사로 75,37.50393269,127.0967993
1345,봉구비어삼양동,서울특별시 강북구 삼양로 170,37.61899007,127.021372
1346,스튜디오25,서울특별시 성동구 한림말3길 12,37.54224968,127.0161183
1347,용용선생이수점,서울특별시 동작구 동작대로27다길 26,37.48630557,126.9802501
1348,제이제이치킨,서울특별시 중구 퇴계로10길 10,37.55893834,126.9801665
1349,막걸리집,서울특별시 동대문구 왕산로35길 13,37.58030633,127.0430955
1350,한앤둘치킨,서울특별시 도봉구 도봉산3길 78,37.68407247,127.043442
1351,교동전선생,서울특별시 영등포구 국제금융로2길 37,37.52293226,126.924273
1352,해뜨는식품,서울특별시 은평구 불광로18길 14-1,37.62234958,126.9328673
1353,열쭈꾸미,서울특별시 강북구 도봉로8길 58,37.61135337,127.0327985
1354,프랑스슈퍼,서울특별시 송파구 양재대로71길 13-4,37.51055939,127.1248505
1355,더테이블종로,서울특별시 종로구 우정국로2길 21,37.56969607,126.9842649
1356,엑스오,서울특별시 용산구 우사단로14길 18,37.53412981,126.9966732
1357,강남2,서울특별시 중랑구 면목로 368,37.58471231,127.0886231
1358,강남7080라이브카페강남대관,서울특별시 강남구 강남대로62길 28,37.49067545,127.0338253
1359,정든다락너와나누다,서울특별시 양천구 신월로13길 2,37.5184299,126.8416906
1360,딸기노래바,서울특별시 구로구 경인로 179,37.49516059,126.8412359
1361,옥상달빛,서울특별시 마포구 와우산로13길 2,37.54997731,126.9228206
1362,젠,서울특별시 서초구 서초대로49길 4,37.49378686,127.0123666
1363,느린마을양조장,서울특별시 서초구 반포대로28길 56-3,37.49129332,127.011574
1364,희스토리,서울특별시 중구 수표로 42-19,37.56508067,126.9903268
1365,친구야놀자,서울특별시 송파구 삼전로 74,37.50509853,127.0890376
1366,비스트로129,서울특별시 중랑구 중랑천로12길 73,37.59334333,127.0768997
1367,맥주공장,서울특별시 강북구 월계로3길 69,37.6128103,127.0313638
1368,마실,서울특별시 마포구 와우산로17길 14,37.5503496,126.9221476
1369,1970새마을포차신림역점,서울특별시 관악구 신림로59길 7,37.4829173,126.9292906
1370,스위즐,서울특별시 성북구 동소문로20길 37-13,37.59114285,127.0175019
1371,통닭사랑,서울특별시 강동구 천중로12길 23,37.54414156,127.1272532
1372,패리스비치,서울특별시 강남구 압구정로42길 36,37.52656108,127.0345166
1373,성수식당,서울특별시 은평구 역말로 9-1,37.60569172,126.9114057
1374,야먹자거기어때,서울특별시 금천구 금하로 725,37.4507404,126.9105246
1375,보라매커피숍,서울특별시 관악구 보라매로 30,37.49220444,126.9270095
1376,태리라이브,서울특별시 양천구 등촌로 148,37.54308952,126.862832
1377,이마치,서울특별시 마포구 성미산로29안길 19-7,37.56536905,126.9230405
1378,무자비,서울특별시 용산구 한강대로84길 11-18,37.54444315,126.9731895
1379,화려호프,서울특별시 영등포구 대림로 96-1,37.49042435,126.9038874
1380,텐애드,서울특별시 서초구 남부순환로 2614,37.48446323,127.0366529
1381,이자카야묘기,서울특별시 서초구 마방로2길 90,37.46959393,127.0397492
1382,해바라기,서울특별시 구로구 개봉로12길 5-2,37.48822961,126.8567552
1383,에어플레인모드,서울특별시 서대문구 연세로4길 36,37.55769847,126.9386568
1384,레드쉽,서울특별시 용산구 이태원로20길 2-10,37.53402261,126.9914925
1385,메이드바,서울특별시 강서구 강서로 391,37.56053008,126.8384132
1386,치킨장인,서울특별시 영등포구 선유동1로 14-1,37.5233717,126.8918889
1387,제이앤디글로벌클라우드비어스테이션,서울특별시 송파구 송파대로 521,37.51164925,127.1008011
1388,술독에빠진날,서울특별시 강동구 천중로 205,37.54100446,127.1430528
1389,자양동포차,서울특별시 광진구 자양번영로 23-1,37.53182331,127.0750562
1390,다기몽옛날통닭,서울특별시 강서구 송정로 18-22,37.55708082,126.8132163
1391,트랄라한남,서울특별시 용산구 대사관로31길 19-10,37.5343835,127.0053595
1392,에쿠스노래타운,서울특별시 금천구 시흥대로63길 3,37.45478164,126.8993442
1393,크라운호프길동,서울특별시 강동구 천호대로 1135,37.5346226,127.1377739
1394,그린비,서울특별시 종로구 돈화문로5가길 15,37.57143218,126.9912826
1395,럭셔리라이브7080,서울특별시 광진구 면목로 197,37.57082988,127.0831548
1396,뉴콘서트,서울특별시 영등포구 영등포로 385,37.51385746,126.9211682
1397,황진이,서울특별시 강서구 마곡중앙6로 89,37.56015848,126.8372758
1398,한잔,서울특별시 중랑구 신내로 211,37.61642365,127.0925972
1399,비베레,서울특별시 서초구 강남대로39길 6-7,37.48659962,127.0323513
1400,티엔프루프,서울특별시 강남구 양재천로 181,37.48232936,127.0457372
1401,장미호프,서울특별시 구로구 고척로 152,37.50295613,126.8506156
1402,쉘브르,서울특별시 서대문구 수색로 42,37.57043336,126.9142398
1403,플러스,서울특별시 송파구 올림픽로30길 6-5,37.51513396,127.1076143
1404,부킹,서울특별시 중랑구 봉우재로33길 79,37.59563046,127.0894639
1405,코지,서울특별시 송파구 법원로 114,37.48604895,127.1209979
1406,공감치킨,서울특별시 도봉구 노해로69길 21,37.65325154,127.0505465
1407,믹스드라인,서울특별시 중구 충무로5길 18,37.56534541,126.9917835
1408,아시아남동,서울특별시 마포구 월드컵북로44길 67,37.57731869,126.8940108
1409,구공슈퍼,서울특별시 영등포구 영중로6길 12,37.51785475,126.9070835
1410,레이니에프앤비,서울특별시 강남구 도산대로75길 28,37.52599166,127.0453849
1411,아바,서울특별시 노원구 노해로75길 14-26,37.65457068,127.0588708
1412,호텔글로리,서울특별시 강북구 한천로139길 42,37.63885131,127.02493
1413,양평동장군집염창역점,서울특별시 양천구 목동중앙북로 93-5,37.54647195,126.8735426
1414,로시난테,서울특별시 중구 퇴계로76길 32,37.56383024,127.0150988
1415,더원7080주점,서울특별시 은평구 연서로29길 20-23,37.62007104,126.9191254
1416,노가리먹태,서울특별시 서초구 반포대로28길 73,37.49185759,127.012245
1417,힐사이드라이브,서울특별시 광진구 자양로 81,37.53512648,127.0838297
1418,유토피아,서울특별시 도봉구 도봉로 697,37.66663182,127.0427364
1419,라포레,서울특별시 강남구 삼성로 642,37.51738928,127.051309
1420,행복한오타쿠성신,서울특별시 성북구 동소문로20다길 30-11,37.59168354,127.0185931
1421,짝태노가리야,서울특별시 은평구 통일로66길 12,37.61069521,126.9314255
1422,별난주점,서울특별시 도봉구 도봉로150길 31,37.66651413,127.0448915
1423,술이랑,서울특별시 성북구 보국문로18길 12,37.61124141,127.0095242
1424,한집포차,서울특별시 강동구 진황도로 9,37.54007107,127.128783
1425,모나코,서울특별시 영등포구 양평로 28,37.53343497,126.9033261
1426,필단란주점,서울특별시 동작구 사당로 256,37.48323369,126.9761648
1427,뉴새로나,서울특별시 동대문구 왕산로32길 43,37.57709703,127.0417893
1428,수란잔,서울특별시 영등포구 영등포로5길 19,37.52410131,126.8842079
1429,시간여행,서울특별시 서대문구 증가로 104,37.57627886,126.9258155
1430,이자카야준꼬,서울특별시 마포구 포은로 12,37.5492968,126.9095444
1431,로얄프린스,서울특별시 강남구 테헤란로33길 13,37.5026308,127.0391453
1432,샵아지트,서울특별시 성동구 왕십리로8길 4,37.54642465,127.0450339
1433,라우더,서울특별시 강남구 논현로95길 34,37.50169933,127.0332082
1434,두꺼비로멘스,서울특별시 도봉구 노해로69길 21-15,37.65302947,127.049824
1435,사계진미,서울특별시 구로구 디지털로32나길 29,37.48448287,126.9005934
1436,놀이터,서울특별시 강서구 마곡중앙6로 89,37.56015848,126.8372758
1437,진로이즈백,서울특별시 도봉구 마들로11가길 13-6,37.65268465,127.0495224
1438,삼성호프,서울특별시 중랑구 면목로 404,37.58800406,127.0878357
1439,만남호프,서울특별시 강동구 천호대로168길 25,37.53467649,127.1328286
1440,아이러브펍,서울특별시 중구 다동길 43,37.56821344,126.9816022
1441,클럽블루프린트,서울특별시 마포구 와우산로17길 14,37.5503496,126.9221476
1442,낭만반점,서울특별시 은평구 연서로29길 25-5,37.61926297,126.917472
1443,궁전준코,서울특별시 구로구 경인로 196,37.49537531,126.8429175
1444,바테일러,서울특별시 성북구 아리랑로2길 23,37.59379124,127.0174217
1445,엑스엑스노래,서울특별시 강서구 강서로5나길 148,37.52835051,126.8398741
1446,블러섬랜드,서울특별시 마포구 토정로 136,37.54526958,126.9263059
1447,골주점,서울특별시 서대문구 거북골로 20,37.58052542,126.9251205
1448,락만포차,서울특별시 강서구 화곡로63길 131,37.55880967,126.8458194
1449,마니아호프,서울특별시 중랑구 동일로129길 43,37.5995996,127.0772868
1450,천문대,서울특별시 용산구 이태원로27가길 37,37.53486519,126.9930878
1451,만보,서울특별시 중랑구 사가정로51길 54,37.58327401,127.0878934
1452,늘사랑,서울특별시 강북구 한천로 1024,37.63947173,127.0280491
1453,잠실꽃낙지,서울특별시 송파구 백제고분로19길 7,37.50554835,127.0866117
1454,드링스온,서울특별시 마포구 와우산로17길 19-8,37.54991148,126.9215314
1455,이자카야나무삼성타운,서울특별시 서초구 서초대로78길 26,37.49535587,127.0277147
1456,투다리문정,서울특별시 송파구 새말로5길 30,37.48525805,127.1236984
1457,바렌티노,서울특별시 종로구 수표로28길 5,37.57290575,126.9886929
1458,오동닭빨,서울특별시 중구 다산로35길 19-1,37.56379793,127.0144653
1459,참제철,서울특별시 종로구 사직로 133-10,37.57636016,126.9734307
1460,아름다온,서울특별시 영등포구 여의나루로 71,37.52377577,126.9268629
1461,어베인,서울특별시 노원구 노해로83길 10-4,37.65569733,127.0645798
1462,스토리엔비어,서울특별시 양천구 남부순환로40길 51,37.53342094,126.8268631
1463,필독,서울특별시 강서구 공항대로46길 81,37.55242957,126.8512822
1464,펀비어킹상봉메가박스점,서울특별시 중랑구 망우로30길 3,37.59307404,127.0747289
1465,을지로골뱅이,서울특별시 강동구 상암로 47-3,37.54975008,127.1290099
1466,발빠닭,서울특별시 구로구 경인로47길 30,37.50075698,126.8664035
1467,안주당,서울특별시 동대문구 황물로 168,37.56511239,127.0562393
1468,청춘전막걸리,서울특별시 금천구 가산로 57-2,37.47164004,126.8964177
1469,웨이백홈,서울특별시 중랑구 봉화산로56길 60,37.60612187,127.0981021
1470,보스,서울특별시 서대문구 연세로7길 25,37.5574614,126.935344
1471,생활맥주북데일리비어,서울특별시 중구 남대문로1길 26-5,37.56234095,126.9776979
1472,위유,서울특별시 용산구 이태원로 143-7,37.53449239,126.9895287
1473,라르고,서울특별시 마포구 굴레방로9길 8,37.55691859,126.9552716
1474,웨스턴,서울특별시 영등포구 영신로32길 12,37.51900043,126.9023722
1475,파티오라운지,서울특별시 강남구 논현로 742,37.51827291,127.0292048
1476,코보스마곡,서울특별시 강서구 마곡서로 101,37.56266288,126.8235863
1477,태양호프,서울특별시 금천구 시흥대로150길 21,37.47582788,126.9000645
1478,딸기노래룸,서울특별시 관악구 봉천로 239,37.48959361,126.9282455
1479,투다리,서울특별시 도봉구 도봉로 585,37.65721558,127.0393553
1480,더후라이팬,서울특별시 서대문구 명지대길 14,37.58095745,126.925069
1481,일급수,서울특별시 강북구 도봉로 343,37.6384973,127.0257051
1482,에비앙,서울특별시 강남구 논현로 647,37.51153347,127.0314526
1483,미드나잇포차,서울특별시 강남구 도산대로49길 10-2,37.52358517,127.0375303
1484,품앗이,서울특별시 영등포구 영중로4길 20,37.51740845,126.9085154
1485,성미산알루,서울특별시 마포구 성미산로1길 29,37.5592641,126.9077919
1486,디셈버,서울특별시 마포구 월드컵로 120,37.55901111,126.9077164
1487,장미포차,서울특별시 중랑구 면목로33길 15,37.57662882,127.0849857
1488,크래프트한스연남,서울특별시 마포구 양화로23길 22,37.55935166,126.9251871
1489,정든닭발양재,서울특별시 서초구 마방로10길 18-1,37.47641048,127.0436417
1490,골드,서울특별시 광진구 광나루로 396,37.5472106,127.0735647
1491,칭따오마케팅,서울특별시 마포구 양화로3길 6,37.54921899,126.9118541
1492,퍼시픽스탠다드,서울특별시 강남구 압구정로4길 27-6,37.52177159,127.020788
1493,고래이야기,서울특별시 강서구 공항대로8길 18-3,37.56007931,126.8121274
1494,두꺼비,서울특별시 강동구 양재대로103길 42,37.53350777,127.1356482
1495,오천냥포차,서울특별시 중랑구 겸재로 258-1,37.59014038,127.0961435
1496,치치,서울특별시 광진구 동일로22길 107,37.54089306,127.0699765
1497,장모님쭈꾸미,서울특별시 강서구 마곡중앙로 33,37.55803636,126.8240665
1498,오육st,서울특별시 성북구 고려대로26길 25,37.58505646,127.0300479
1499,오늘은치킨호프,서울특별시 중랑구 용마공원로 5,37.59500534,127.1007728
1500,쇼킹노래바,서울특별시 마포구 동교로 176,37.55616593,126.9216677
1501,서진호프치킨,서울특별시 영등포구 대림로34바길 17,37.50073822,126.8996765
1502,봉구비어,서울특별시 중구 퇴계로44길 8-3,37.56135451,126.9971571
1503,제주순대국,서울특별시 광진구 구의강변로 85,37.53833651,127.0934651
1504,아리랑호프,서울특별시 구로구 우마길 16-5,37.48107748,126.8881382
1505,성식이네매운닭발,서울특별시 강동구 진황도로 100,37.53538554,127.1373691
1506,애프터눈클럽,서울특별시 송파구 올림픽로34길 20,37.51488883,127.1109542
1507,언니포차,서울특별시 강북구 노해로 37,37.63893026,127.0224929
1508,술이그린밤,서울특별시 강남구 강남대로124길 3-6,37.50906735,127.0230352
1509,유케야신도림역점,서울특별시 구로구 경인로67길 23,37.5106508,126.889204
1510,오트란,서울특별시 광진구 자양로37길 12,37.54801325,127.0875424
1511,팬더,서울특별시 강서구 화곡로 322,37.5525492,126.8506127
1512,시립대봉순비어,서울특별시 동대문구 전농로 237,37.58502012,127.052195
1513,츤츤포차,서울특별시 광진구 능동로13길 69,37.54471519,127.0690464
1514,날쌘카페자이,서울특별시 강남구 영동대로 22,37.49108843,127.0741452
1515,낭만주객,서울특별시 서대문구 연희맛로 7-8,37.5664008,126.928493
1516,물고기,서울특별시 동작구 신대방길 111,37.49020443,126.9083573
1517,타임즈압구정,서울특별시 강남구 압구정로54길 25,37.52622197,127.0393406
1518,나베공방,서울특별시 마포구 양화로6길 57-24,37.54947511,126.918154
1519,주주패밀리,서울특별시 강남구 도산대로55길 26,37.52521548,127.040779
1520,삼씨,서울특별시 용산구 신흥로12길 1,37.54349715,126.9878116
1521,갬성,서울특별시 영등포구 영등포로35길 9,37.52098931,126.9040513
1522,세븐,서울특별시 강북구 도봉로89길 1,37.63886095,127.0260969
1523,힐링노래방,서울특별시 강서구 강서로7길 35,37.52933663,126.8457986
1524,찰리네맥주집창동역점,서울특별시 도봉구 노해로63가길 29,37.65404459,127.0449832
1525,연,서울특별시 마포구 신촌로12다길 25,37.55473696,126.9339793
1526,운영까페,서울특별시 동작구 상도로 385,37.49482728,126.9552437
1527,언더바,서울특별시 중구 퇴계로32길 34,37.55945926,126.9925645
1528,연호프,서울특별시 구로구 도림로3길 1,37.48541253,126.8863326
1529,황후노래타운,서울특별시 영등포구 영중로10길 34-1,37.51849447,126.9090312
1530,밀크포차,서울특별시 강남구 압구정로50길 28,37.52663776,127.0372875
1531,언제라도,서울특별시 구로구 고척로 102,37.50103185,126.8454767
1532,크림,서울특별시 강서구 공항대로 36,37.5609972,126.8111168
1533,청담이상신당점,서울특별시 중구 퇴계로78길 17,37.56453005,127.0169007
1534,범맥주,서울특별시 마포구 잔다리로 5-1,37.55051332,126.922315
1535,롱타임노씨,서울특별시 강서구 마곡중앙6로 70,37.55984609,126.8348359
1536,째즈,서울특별시 종로구 평창11길 5,37.60619685,126.9665878
1537,노군꼬치가산디지털단지점,서울특별시 금천구 디지털로10길 69,37.47529108,126.8908355
1538,포라이브,서울특별시 강남구 선릉로161길 32,37.52773234,127.0378165
1539,홍대노가리,서울특별시 강서구 강서로5나길 147,37.52804453,126.8399128
1540,꼬멧익스프레스,서울특별시 동작구 동작대로 53,37.48125238,126.9814947
1541,해피디쉬클럽,서울특별시 동대문구 서울시립대로 164,37.58329315,127.054821
1542,심취하다,서울특별시 서대문구 명지대길 14,37.58095745,126.925069
1543,네박자,서울특별시 동작구 여의대방로24길 16,37.4978544,126.9211157
1544,제이에스아이,서울특별시 강남구 선릉로103길 3,37.50757474,127.0454612
1545,통파이브,서울특별시 동대문구 장한로24길 21,37.57067211,127.0721874
1546,건대메이드,서울특별시 광진구 아차산로 219,37.54112008,127.0679142
1547,삼락,서울특별시 중랑구 면목로56나길 8,37.58437325,127.0902237
1548,노가리앤비어,서울특별시 강동구 암사길 61,37.55203746,127.1361925
1549,술땡,서울특별시 강북구 솔매로45길 11,37.62656261,127.0251019
1550,멤버노래주점,서울특별시 동대문구 왕산로 138-1,37.57798287,127.0388118
1551,사운드온더펍개포,서울특별시 강남구 개포로 233,37.47901447,127.0480972
1552,문래약수터,서울특별시 영등포구 도림로 481,37.51639868,126.8900803
1553,스타호프,서울특별시 강서구 화곡로20길 47,37.53832265,126.8368908
1554,압구정봉구비어,서울특별시 강동구 천호옛14길 28-5,37.53571591,127.1271478
1555,폭스노래바,서울특별시 은평구 통일로 869,37.62035644,126.9197896
1556,일구칠구,서울특별시 용산구 한강대로10길 15,37.52393878,126.9642957
1557,1979포차,서울특별시 관악구 봉천로 485-5,37.48222763,126.9538928
1558,보보스,서울특별시 동대문구 장한로 126,37.57154142,127.0715879
1559,콘서트7080,서울특별시 금천구 시흥대로56길 17,37.45264098,126.9026646
1560,걸스데이,서울특별시 강서구 공항대로 23,37.56172281,126.8098036
1561,몽고메리,서울특별시 관악구 남부순환로 1674,37.48435187,126.9364841
1562,쎄시봉7080라이브,서울특별시 금천구 시흥대로 220,37.45354828,126.9013967
1563,오렌지라이브노래주점,서울특별시 강남구 논현로176길 14,37.52698116,127.0297029
1564,이쯔모,서울특별시 송파구 새말로 62,37.48098676,127.1212382
1565,나인웨어,서울특별시 광진구 동일로18길 53,37.53933837,127.0659335
1566,바이브,서울특별시 동대문구 회기로 125,37.59161126,127.0505148
1567,참존숯불바베큐,서울특별시 성동구 용답중앙15길 9-1,37.56448636,127.0534513
1568,제이제이JJ,서울특별시 강서구 곰달래로 97,37.53048655,126.8436085
1569,브라운,서울특별시 강남구 도산대로58길 12,37.52255277,127.0413221
1570,사제이자카야,서울특별시 송파구 송이로 98,37.49738383,127.120933
1571,퓨전요리주점유객주,서울특별시 관악구 남부순환로224길 13,37.48019581,126.9533897
1572,투다리,서울특별시 송파구 법원로11길 7,37.48528008,127.11939
1573,서기맥주,서울특별시 종로구 낙산성곽길 2,37.57171547,127.0098442
1574,팔구집,서울특별시 구로구 구로동로22길 16-17,37.48905337,126.8854418
1575,파인트리,서울특별시 서초구 반포대로14길 54,37.48593303,127.0138496
1576,갈채,서울특별시 은평구 통일로 723,37.61006689,126.9297016
1577,밤나들이술집,서울특별시 영등포구 양평로 59,37.53461954,126.899903
1578,싱글주점,서울특별시 동작구 사당로22길 4,37.48327306,126.9765487
1579,일기장,서울특별시 송파구 오금로11길 27,37.51522515,127.1101471
1580,만월,서울특별시 금천구 시흥대로50길 10,37.45123501,126.9026286
1581,딜리버리캡틴,서울특별시 마포구 와우산로15길 28,37.54937268,126.9217316
1582,의리포차,서울특별시 용산구 이촌로75길 16-5,37.52071334,126.9746574
1583,정,서울특별시 송파구 백제고분로21길 8,37.50459265,127.0900391
1584,다락,서울특별시 종로구 새문안로5길 7-1,37.57095657,126.9747727
1585,스시쇼부,서울특별시 은평구 은평로13길 11-9,37.60202334,126.9250378
1586,상한가,서울특별시 서초구 동작대로 10,37.4773915,126.9820333
1587,사당역포차,서울특별시 관악구 승방2길 39,37.4757056,126.9808803
1588,윅앤드위켄드,서울특별시 영등포구 도림로112길 16,37.50892067,126.9017168
1589,수빈호프,서울특별시 노원구 상계로23다길 24,37.65945045,127.0697463
1590,야성,서울특별시 강북구 도봉로33길 9,37.62150001,127.0274336
1591,훈S포차,서울특별시 중랑구 봉화산로52길 58,37.60541419,127.0962872
1592,꽃다운주점이수점,서울특별시 동작구 동작대로27다길 26,37.48630557,126.9802501
1593,우드스탁,서울특별시 서초구 서초대로75길 35,37.50063958,127.024864
1594,2에프,서울특별시 용산구 보광로59길 10,37.53403059,126.9934837
1595,뉴욕노래밤,서울특별시 은평구 통일로65길 22,37.60904697,126.9285157
1596,나드리,서울특별시 노원구 상계로24길 11-11,37.65828404,127.0703728
1597,빨간쭈꾸미포차,서울특별시 마포구 월드컵북로 332-19,37.57640188,126.8942508
1598,친구야칭구LiveCafe,서울특별시 양천구 신월로 132,37.51658787,126.8385404
1599,솜사탕노래장,서울특별시 구로구 경인로 208,37.49589188,126.8441422
1600,브롱스상도역점,서울특별시 동작구 상도로 293,37.50162285,126.9493358
1601,한신포차사가정역점,서울특별시 중랑구 사가정로51길 39,37.58259689,127.0877205
1602,잠꾸러기,서울특별시 동작구 흑석로9길 6,37.50771678,126.9598372
1603,클레오노래바,서울특별시 은평구 응암로13길 11-4,37.58910227,126.9161426
1604,고모네포차,서울특별시 도봉구 덕릉로60길 36,37.63858941,127.040241
1605,술이랑노래랑,서울특별시 강동구 양재대로87길 5,37.52531824,127.1345661
1606,고래사냥노래주점,서울특별시 강북구 월계로 19,37.61024846,127.0321106
1607,어비스,서울특별시 종로구 사직로12길 19-17,37.57533209,126.9712598
1608,건풍치킨,서울특별시 송파구 오금로11길 51,37.51558777,127.112835
1609,화동,서울특별시 강북구 도봉로87길 43,37.63895625,127.0234556
1610,남산골뱅이,서울특별시 종로구 율곡로30길 23,37.5718442,127.0069331
1611,행운이네,서울특별시 은평구 응암로 240,37.59322903,126.9181097
1612,소리바다,서울특별시 양천구 중앙로43길 23,37.51871936,126.8528852
1613,정리의밤,서울특별시 서대문구 연희맛로 31-10,37.56817515,126.9304032
1614,신바람7080,서울특별시 성북구 동소문로 32,37.58974398,127.0096846
1615,비너스노래왕,서울특별시 종로구 종로66길 20,37.5739407,127.0216902
1616,행운,서울특별시 영등포구 도림로31길 12,37.49337383,126.89551
1617,옥분이,서울특별시 관악구 남부순환로230길 26,37.47896972,126.9553515
1618,자금성,서울특별시 구로구 남부순환로105라길 18,37.48036929,126.8894829
1619,역전할머니맥주1982구로항동점,서울특별시 구로구 서해안로 2104,37.48034482,126.8236458
1620,맥심호프,서울특별시 구로구 남부순환로105라길 20,37.48040713,126.8896745
1621,호프왕노가리,서울특별시 동작구 상도로22길 14,37.50261716,126.9365983
1622,티엠아이,서울특별시 강남구 테헤란로33길 8,37.5024815,127.0396222
1623,명월,서울특별시 강동구 진황도로43길 3,37.53578726,127.1380886
1624,스토리,서울특별시 송파구 올림픽로30길 6-5,37.51513396,127.1076143
1625,홍포차엔홍차이나,서울특별시 은평구 불광로 108,37.61640303,126.9328957
1626,달맞이,서울특별시 종로구 돈화문로11길 30,37.57281528,126.9897017
1627,디데이,서울특별시 강남구 선릉로131길 18,37.51757305,127.0394854
1628,각각,서울특별시 마포구 와우산로1길 3-11,37.5453412,126.9222989
1629,팡파르,서울특별시 용산구 한강대로 57,37.52613113,126.9646161
1630,오뎅포차,서울특별시 구로구 새말로 102,37.50576967,126.8913914
1631,그레이,서울특별시 강남구 테헤란로87길 13,37.50862613,127.0585797
1632,와이니데이즈미아,서울특별시 강북구 도봉로10가길 12,37.61300599,127.0310555
1633,전주주막,서울특별시 양천구 중앙로 290,37.52216357,126.8521876
1634,이모네,서울특별시 종로구 새문안로5가길 13,37.57321846,126.9737681
1635,대동집점,서울특별시 강서구 마곡중앙로 171,37.56902066,126.8277652
1636,맥주창고,서울특별시 구로구 경인로20길 10,37.49530164,126.8436763
1637,여기서놀아,서울특별시 양천구 신월로15길 8,37.51914471,126.8419963
1638,아지트,서울특별시 강동구 구천면로 344,37.54955729,127.1371152
1639,치킨뱅이,서울특별시 강남구 학동로23길 7,37.51388533,127.0281757
1640,노가리호프,서울특별시 성북구 동소문로 248,37.60345539,127.0245428
1641,다솜,서울특별시 동작구 여의대방로24길 79,37.49870518,126.9244963
1642,김복남맥주,서울특별시 도봉구 노해로67길 2,37.65241829,127.0500131
1643,짱가,서울특별시 강남구 테헤란로77길 11-3,37.5069961,127.0541777
1644,짝태앤노가리,서울특별시 서대문구 세검정로 89,37.59575749,126.9486365
1645,핸즈테이블,서울특별시 중랑구 망우로32길 40,37.5920728,127.0768928
1646,만나반찬,서울특별시 구로구 오리로 1298,37.49727078,126.8295324
1647,켈리,서울특별시 용산구 보광로60길 22,37.53391192,126.9954201
1648,신나라7080,서울특별시 중랑구 용마산로 494,37.59503724,127.1002289
1649,파파코,서울특별시 동작구 상도로 177,37.5046415,126.9382661
1650,바다포차시실리,서울특별시 용산구 한강대로 130-2,37.53098032,126.9699459
1651,홍대스타일,서울특별시 마포구 양화로8길 36,37.54915365,126.9165063
1652,문화주점한남점,서울특별시 용산구 대사관로34길 16,37.53264014,127.0059144
1653,고향포차,서울특별시 광진구 용마산로30길 2,37.568143,127.0864139
1654,공야,서울특별시 노원구 공릉로 152,37.62348606,127.0795744
1655,픽업,서울특별시 중랑구 숙선옹주로 6-9,37.61483176,127.0778688
1656,대다,서울특별시 영등포구 경인로77길 18-1,37.51313951,126.8922778
1657,준코뮤직타운이수역점,서울특별시 동작구 사당로 307,37.48553267,126.9815271
1658,꽃씨,서울특별시 중구 다산로44길 28,37.5649755,127.0184569
1659,달빛마당,서울특별시 양천구 곰달래로 39,37.53008789,126.8369621
1660,달고양,서울특별시 성북구 동소문로20길 37-15,37.59116228,127.0176715
1661,번개,서울특별시 강북구 한천로131길 42,37.63773768,127.0264628
1662,서울포차,서울특별시 관악구 남부순환로176길 18,37.48316259,126.9285182
1663,궁전미남클럽,서울특별시 관악구 봉천로12길 49,37.48644773,126.9300996
1664,도깨비전,서울특별시 광진구 아차산로 589,37.54597323,127.1047232
1665,비빔밥포차,서울특별시 강북구 도봉로18길 18,37.61784238,127.0307888
1666,달밤포차,서울특별시 광진구 자양로18길 56,37.53796851,127.0866351
1667,캐빈,서울특별시 동작구 흑석로13마길 65-3,37.50746675,126.9590716
1668,도리안그레이,서울특별시 종로구 대학로11길 27,37.58204052,127.0001177
1669,원,서울특별시 강남구 테헤란로14길 16,37.49826519,127.0330716
1670,프로포즈,서울특별시 금천구 가산로 34-6,37.47171123,126.8992204
1671,노래하는황금마차,서울특별시 은평구 응암로 236,37.59284971,126.9180133
1672,쉼표포차,서울특별시 동대문구 답십리로63길 132,37.57840941,127.0695554
1673,두바이,서울특별시 강서구 마곡중앙6로 89,37.56015848,126.8372758
1674,살루드,서울특별시 용산구 소월로20길 50,37.54452483,126.9847197
1675,안녕하세요프로젝트,서울특별시 강북구 도봉로8길 26,37.61233354,127.0314606
1676,현숙이네포차,서울특별시 중구 퇴계로85길 12-12,37.56625919,127.0200474
1677,더코스트엠,서울특별시 강남구 테헤란로83길 42,37.51011694,127.0568304
1678,가엘,서울특별시 성북구 장월로 116,37.61603313,127.0487318
1679,우치닭발,서울특별시 송파구 거마로 13,37.49447636,127.144659
1680,지혜포차,서울특별시 구로구 구로동로20길 6-3,37.48866192,126.8850179
1681,청춘문방구,서울특별시 강북구 한천로139가길 29,37.6404806,127.0247387
1682,밤과안개,서울특별시 서대문구 증가로 217,37.5811231,126.9146166
1683,오페라,서울특별시 노원구 한글비석로23길 34,37.65937865,127.0709259
1684,학창시절,서울특별시 강북구 덕릉로28길 63,37.63192151,127.0248279
1685,역전할머니맥주,서울특별시 구로구 디지털로32나길 29,37.48448287,126.9005934
1686,샵,서울특별시 도봉구 노해로65길 11,37.65180168,127.0461792
1687,아토,서울특별시 은평구 통일로83길 22,37.62081275,126.9174722
1688,노블레스,서울특별시 종로구 종로 253-1,37.57137691,127.0060111
1689,미로,서울특별시 강남구 봉은사로 105,37.50496586,127.0250114
1690,스카이캣카페,서울특별시 중구 명동4길 2,37.56344459,126.9834216
1691,선술집자주,서울특별시 구로구 새말로 102,37.50576967,126.8913914
1692,송가네포차,서울특별시 은평구 연서로18길 2,37.61221963,126.9177667
1693,로코,서울특별시 강북구 월계로7나길 36,37.61272466,127.0319086
1694,더밤,서울특별시 마포구 잔다리로 19,37.55062611,126.9208534
1695,뉴타운,서울특별시 송파구 백제고분로 358,37.50424607,127.1060134
1696,빈집;비어있는집,서울특별시 중구 수표로 42-7,37.5652598,126.9901999
1697,재구네닭발,서울특별시 중구 퇴계로86길 26,37.56439948,127.019619
1698,내맘대로분식포차,서울특별시 동대문구 천호대로97길 23,37.56185567,127.0705083
1699,마이오운가든,서울특별시 영등포구 선유로55길 33,37.53890571,126.8957439
1700,데자르,서울특별시 성북구 삼선교로 30,37.58790927,127.0090183
1701,제이,서울특별시 영등포구 영중로4길 9-4,37.51765182,126.9075503
1702,유니크,서울특별시 강남구 봉은사로 135,37.50627198,127.0293376
1703,꼬미꼬노래바,서울특별시 금천구 시흥대로52길 62,37.45405669,126.9018075
1704,통통호프포차,서울특별시 도봉구 방학로5길 9-6,37.66217739,127.0378972
1705,벤틀리,서울특별시 금천구 가산로 148,37.47851702,126.8908557
1706,포차천국,서울특별시 양천구 신정중앙로 85,37.52684775,126.8613703
1707,벤조롱,서울특별시 은평구 불광천길 486,37.59561306,126.9157424
1708,바람소리7080라이브,서울특별시 강서구 가로공원로 194,37.53691337,126.8374332
1709,동묘마케트,서울특별시 종로구 종로54길 17-10,37.57177261,127.0145187
1710,낭만주막,서울특별시 강서구 공항대로46길 93,37.55206624,126.8509822
1711,명호프,서울특별시 영등포구 도림로41길 6,37.49448081,126.8982643
1712,비비엘프로젝트,서울특별시 용산구 회나무로42길 36,37.54006542,126.9942852
1713,카라,서울특별시 강서구 화곡로20길 47,37.53832265,126.8368908
1714,에스케이,서울특별시 영등포구 영등포로50길 12,37.51793684,126.9091412
1715,술고래유괴단,서울특별시 은평구 응암로13길 25-1,37.5887089,126.9145178
1716,돈푸대,서울특별시 은평구 연서로 230-2,37.61846495,126.9208478
1717,데일리비어생활맥주,서울특별시 중구 남대문로9길 12,37.56685391,126.9817226
1718,홍대원조통골뱅이,서울특별시 마포구 토정로35길 1,37.54007381,126.9436479
1719,페어링,서울특별시 강남구 도산대로 221,37.52097179,127.0308781
1720,천원의행복,서울특별시 성북구 보국문로11길 13,37.60853527,127.0091637
1721,이모포차,서울특별시 영등포구 신풍로 105-2,37.50015056,126.9179952
1722,숙이네분식,서울특별시 용산구 우사단로10길 47,37.5328989,126.9981492
1723,인생술집,서울특별시 강서구 강서로 349,37.55687967,126.837372
1724,술폭탄,서울특별시 은평구 연서로29길 20-19,37.6199068,126.9189013
1725,마라공장,서울특별시 영등포구 디지털로 379,37.49102414,126.9015266
1726,가온7080,서울특별시 송파구 올림픽로30길 10,37.51483894,127.1079232
1727,오케이한식뷔페,서울특별시 구로구 고척로25길 33-15,37.50322055,126.8463138
1728,시퀀스,서울특별시 강남구 언주로172길 66,37.52661702,127.0391658
1729,밤낮cafe&pub,서울특별시 마포구 독막로9길 41,37.55004611,126.9204883
1730,서촌오뎅집,서울특별시 종로구 사직로 103-4,37.57638947,126.9705887
1731,앙마꼬치,서울특별시 강남구 선릉로131길 19,37.51727426,127.0393082
1732,푸른바다찜&탕,서울특별시 성동구 용답25다길 23,37.56335808,127.0532053
1733,루키,서울특별시 송파구 송파대로28길 12,37.4937234,127.1194379
1734,짱커피호프,서울특별시 구로구 구로동로 106,37.48807579,126.8849701
1735,와우,서울특별시 중랑구 사가정로 363-1,37.5811883,127.0850091
1736,이슬집,서울특별시 은평구 연서로27길 16-15,37.6187823,126.9181133
1737,전이랑명태랑,서울특별시 강서구 방화대로21길 90,37.56432864,126.811777
1738,화곡동오남매닭갈비,서울특별시 강서구 화곡로 206,37.5435686,126.8435083
1739,코믹포차,서울특별시 중랑구 면목로48길 80,37.58182686,127.0930286
1740,비어버리자,서울특별시 강서구 가로공원로76길 6,37.53674664,126.8369718
1741,하루,서울특별시 강서구 금낭화로 128,37.57654655,126.8126696
1742,엘레강스,서울특별시 서대문구 통일로 159,37.56816782,126.9639326
1743,비어스토리,서울특별시 도봉구 덕릉로 244,37.63925488,127.0389747
1744,쎄시봉7080,서울특별시 강서구 강서로5나길 21,37.52836757,126.8471372
1745,데이디너,서울특별시 동대문구 전농로 104,37.57427047,127.0577992
1746,흑석동선술집키코,서울특별시 동작구 서달로14나길 17,37.50740614,126.9634496
1747,볼트마이크,서울특별시 관악구 남부순환로 1594-4,37.48367048,126.9278891
1748,미근동1051,서울특별시 서대문구 충정로6길 37,37.56253387,126.9667385
1749,한울,서울특별시 성북구 삼양로 15-1,37.60457396,127.0246981
1750,오레노유메,서울특별시 강남구 역삼로3길 19,37.49479644,127.0309111
1751,정희네,서울특별시 광진구 답십리로 400,37.5709957,127.0847829
1752,호호포차,서울특별시 도봉구 마들로11가길 13,37.65289814,127.0491797
1753,포차이,서울특별시 송파구 올림픽로35다길 32,37.51501052,127.1020277
1754,비틀즈,서울특별시 강동구 올림픽로98길 10,37.55115326,127.1286767
1755,신안전지대,서울특별시 강남구 강남대로96길 15,37.50008145,127.0282076
1756,센스,서울특별시 종로구 수표로 118-1,37.571838,126.9892168
1757,루,서울특별시 서초구 주흥11길 11,37.50786255,127.0190016
1758,립바M,서울특별시 강북구 도봉로87길 31,37.63888914,127.024057
1759,라운드,서울특별시 강남구 논현로150길 33,37.51993754,127.0311177
1760,둥지,서울특별시 광진구 영화사로 57,37.55542423,127.0927828
1761,신나는가요메들리,서울특별시 마포구 백범로 96,37.54764615,126.942036
1762,파티노래빠,서울특별시 종로구 난계로29길 19-13,37.57372813,127.0221345
1763,달야,서울특별시 도봉구 도봉로106길 23,37.64494655,127.0342101
1764,수염아저씨,서울특별시 관악구 솔밭로 6,37.47808055,126.9628373
1765,콘서트,서울특별시 중랑구 면목로 241,37.57454584,127.0847847
1766,드림호프,서울특별시 은평구 증산로15길 25,37.58957981,126.9102704
1767,밀리네호프,서울특별시 금천구 시흥대로64길 19,37.45604792,126.9008289
1768,마니또,서울특별시 금천구 범안로 1209,37.46681797,126.8962625
1769,금복주류발산,서울특별시 강서구 마곡동로4길 15,37.55980495,126.8352327
1770,심야식당텐조,서울특별시 서대문구 거북골로20길 71,37.58106522,126.9112663
1771,돈보,서울특별시 용산구 이태원로23길 28,37.53558713,126.9921616
1772,비엠.2,서울특별시 양천구 신월로 173,37.51865188,126.8422754
1773,지씨라이브,서울특별시 송파구 오금로44가길 4,37.49714993,127.1356377
1774,비어바나시청,서울특별시 중구 남대문로9길 24,37.56712802,126.9811189
1775,비,서울특별시 강남구 테헤란로20길 18,37.49849215,127.0343805
1776,상수리,서울특별시 마포구 독막로 86,37.54748984,126.9227546
1777,고모네포차,서울특별시 강서구 공항대로4길 14,37.56063194,126.8106359
1778,빈대떡신사,서울특별시 강북구 도봉로49길 15,37.62498981,127.0255869
1779,뉴노래팡,서울특별시 은평구 연서로29길 7-23,37.61818741,126.9190734
1780,도믹스,서울특별시 성동구 둘레9가길 9,37.53671371,127.0497969
1781,그랑비노2018,서울특별시 종로구 율곡로10길 25-1,37.57638656,126.9911252
1782,앤제이에프앤씨,서울특별시 강남구 선릉로112길 31,37.51187717,127.0460059
1783,호프광장,서울특별시 양천구 월정로 215,37.53755956,126.8335194
1784,녹스,서울특별시 강남구 선릉로86길 28,37.50358187,127.0520266
1785,향기노래밤,서울특별시 은평구 연서로28길 3,37.61826582,126.9207487
1786,생방송,서울특별시 구로구 구로동로28길 24,37.49070184,126.8853947
1787,엘브이바,서울특별시 관악구 보라매로 17,37.49101419,126.9269134
1788,성가유림상회,서울특별시 마포구 와우산로17길 24,37.5502909,126.9216391
1789,일공큐,서울특별시 송파구 백제고분로46길 14,37.50807115,127.112596
1790,와와호프,서울특별시 중랑구 동일로123길 68,37.59850307,127.0764849
1791,싸구포차2,서울특별시 성동구 마조로 15-3,37.55906549,127.040481
1792,오늘와인한잔왕십리역점,서울특별시 성동구 마조로7길 14,37.56088881,127.0397672
1793,게릿,서울특별시 강남구 논현로159길 9,37.52288002,127.0273463
1794,벨라식스,서울특별시 강남구 테헤란로70길 28,37.50377594,127.0537546
1795,하이롤러호프,서울특별시 성동구 무학로2길 39,37.56297911,127.0342279
1796,사랑방이야기,서울특별시 영등포구 당산로50길 5,37.53485172,126.9035543
1797,콘서트,서울특별시 강북구 삼양로 185,37.62042508,127.0205716
1798,미니호프,서울특별시 관악구 신원로3길 34,37.48238048,126.9267316
1799,다이브인투더딥,서울특별시 용산구 이태원로27가길 37,37.53486519,126.9930878
1800,자하문로2길7,서울특별시 종로구 자하문로2길 7,37.57658273,126.9731219
1801,라비다,서울특별시 성북구 고려대로26길 9,37.58579523,127.0300383
1802,동교해물,서울특별시 마포구 양화로18안길 18,37.55668833,126.9255988
1803,브라더스낵,서울특별시 관악구 조원로6길 7,37.48299339,126.9051493
1804,목포행포차,서울특별시 동대문구 장한로6길 10,37.56351974,127.0667184
1805,맘에든,서울특별시 영등포구 국제금융로 70,37.52148555,126.9306629
1806,제일호프,서울특별시 서초구 나루터로 69,37.5157241,127.0173603
1807,퀴바라,서울특별시 성동구 성수일로1길 18,37.54217684,127.0467855
1808,아톰,서울특별시 마포구 와우산로17길 11,37.5500905,126.922389
1809,도취,서울특별시 금천구 시흥대로52길 70,37.45433492,126.9016904
1810,술한잔마시자,서울특별시 강서구 양천로 711,37.54987328,126.8749513
1811,하늘노래광장,서울특별시 강서구 곰달래로16길 35,37.5285537,126.84038
1812,시시,서울특별시 용산구 한강대로84길 14,37.54359814,126.9734161
1813,오아시스,서울특별시 영등포구 디지털로 362-1,37.48971682,126.9004714
1814,챔피언,서울특별시 동대문구 한빛로 1-1,37.57631992,127.0239233
1815,주인포차,서울특별시 도봉구 노해로63길 84-9,37.65253114,127.0472465
1816,에피타치치,서울특별시 노원구 노해로81길 22-22,37.6558979,127.0637386
1817,꿈이다,서울특별시 강서구 화곡로58길 30-4,37.55254802,126.8523442
1818,엘카페라티노마이애미,서울특별시 강남구 테헤란로14길 25,37.49771215,127.0337572
1819,매거진스탠딩,서울특별시 서대문구 연세로7길 34-6,37.55793624,126.9350429
1820,역전할머니맥주을지로,서울특별시 중구 수표로 52-1,37.56584395,126.9900222
1821,대한건어,서울특별시 도봉구 마들로 661,37.66918953,127.0459227
1822,카르마,서울특별시 용산구 신흥로 95-1,37.54547325,126.9849897
1823,고구려민속주막,서울특별시 송파구 올림픽로32길 18,37.51440643,127.1091161
1824,와다,서울특별시 동대문구 답십리로30길 8,37.57481104,127.0488036
1825,술독에빠진기린포차,서울특별시 동대문구 이문로28길 4,37.59578736,127.0600533
1826,동해호프,서울특별시 관악구 남부순환로 1677,37.48469921,126.9370332
1827,공원포차,서울특별시 구로구 고척로 153,37.50330881,126.850746
1828,동백상회,서울특별시 마포구 동교로30길 3,37.56063503,126.9246253
1829,술생각날때,서울특별시 강북구 도봉로98길 6,37.64141522,127.0299048
